~Version Information Block
VERS .                 2.00:  CWLS LOG ASCII STANDARD - VERSION 2.00
WRAP .                   NO:  One line per depth step
~Well Information Block
#MNEM.UNIT        Data Type   Information
#---------- ----------------  -----------
STRT .F                8542:  START DEPTH
STOP .F               10343:  STOP DEPTH
STEP .F                 0.5:  STEP
NULL .              -999.25:  NULL VALUE
COMP .     PETRO-CANADA UK LTD:  COMPANY
WELL .             12/25-4Y:  WELL
FLD  .               NUTMEG:  FIELD
LOC  .            NORTH SEA:  LOCATION
PROV .                 UKCS:  PROVINCE
SRVC .          HALLIBURTON:  SERVICE COMPANY
DATE .         SEP-OCT-2009:  LOG DATE
UWI  .               500044:  UNIQUE WELL ID
~Curve Information Block
#MNEM.UNIT         API CODE   Curve Description
#---------- ----------------  -----------------
DEPTH.F                    :  Depth Curve
ACCA .IN                   :  Edited Composite Caliper
CGRC .GAPI                 :  Edited Combined Gamma Ray
DTC  .US/F                 :  Edited BAT DTC - Compressional
DTRS .US/F                 :  Edited BAT Refracted Shear
HDBQ .G/CC                 :  Edited Density - Bottom Quad
HDTQ .G/CC                 :  Edited Density - Top Quad
HRBQ .G/CC                 :  Edited Delta Rho - Bot Quad
SEDP .OHMM                 :  Edited Deep Phase Resistivity
SEMP .OHMM                 :  Edited Medium Phase Resistivity
SESP .OHMM                 :  Edited Shallow Phase Resistivity
SEXP .OHMM                 :  Edited X-Shallow Phase Resistivity
TNPL .%                    :  Edited Thermal Neutron Porosity
~Parameter Information Block
#MNEM.UNIT            Value   Description
#---------- ----------------  -----------
SET  .             COMP_LWD:  
PROJ .            125TH_I_1:  
DATU .                  MSL:  
TDD  .F               10388:  
EKB  .F                  88:  
LATI .       58 16'56.460"N:  
LONG .       02 00'23.925"W:  
LMF  .                   RT:  
SURF .F                -301:  
~Other Information Block
~A        DEPTH           ACCA           CGRC            DTC           DTRS           HDBQ           HDTQ           HRBQ           SEDP           SEMP           SESP           SEXP           TNPL 
# ...
      9587.5000         8.6970       118.3700        71.9633       156.0856         2.5700         2.5604         0.0100         3.7845         3.8467         3.5947         3.6715        21.5400 
      9588.0000         8.6970       117.7700        73.3750       156.2649         2.5600         2.5585         0.0100         3.5433         3.4684         3.3817         3.5489        20.8700 
      9588.5000         8.6970       122.1200        73.4959       155.9210         2.5800         2.5504         0.0100         3.2923         3.1129         3.1581         3.2590        20.6200 
      9589.0000         8.6970       117.0700        72.7887       155.9092         2.5800         2.5471         0.0000         3.2161         3.0359         3.0772         3.0860        21.5500 
      9589.5000         8.6970       127.0800        71.2023       155.6624         2.5600         2.5631        -0.0100         3.2541         3.0852         3.0447         3.0430        23.6100 
      9590.0000         8.6970       129.3100        71.1780       154.8060         2.5700         2.5855        -0.0100         3.3239         3.1293         3.0574         3.0831        23.6800 
      9590.5000         8.6970       127.3700        72.0150       154.8593         2.5800         2.5774         0.0000         3.2996         3.0801         3.0484         3.1109        22.7700 
      9591.0000         8.6970       118.3800        72.3031       155.1488         2.5900         2.5856         0.0000         3.2909         3.0894         3.1050         3.1601        21.7300 
      9591.5000         8.6970       127.2000        73.5894       155.0940         2.5700         2.5839         0.0100         3.4973         3.3730         3.3392         3.3623        21.8000 
      9592.0000         8.6970       125.1400        73.8107       154.8310         2.5700         2.5775         0.0100         3.5884         3.5015         3.4928         3.5697        21.1200 
      9592.5000         8.6970       124.3100        74.0932       154.4471         2.5700         2.5702         0.0000         3.5596         3.4465         3.4880         3.6326        20.8500 
      9593.0000         8.6970       125.4100        73.3722       154.1268         2.5300         2.5368        -0.0200         3.5310         3.4370         3.5162         3.6293        19.8300 
      9593.5000         8.6970       126.9800        71.5344       153.9477         2.5500         2.5465        -0.0100         3.6301         3.5721         3.6358         3.6847        20.4800 
      9594.0000         8.6970       134.7300        72.1840       153.7107         2.5600         2.5372         0.0000         3.5339         3.5131         3.5047         3.5746        20.6000 
      9594.5000         8.6970       133.2900        72.4914       153.2529         2.5500         2.5473         0.0000         3.4245         3.3748         3.3543         3.4373        20.2100 
      9595.0000         8.6970       125.2600        72.3074       154.2394         2.5600         2.5640         0.0000         3.3261         3.2270         3.2068         3.2660        21.0800 
      9595.5000         8.6970       130.3000        71.7357       154.5974         2.5700         2.5563         0.0100         3.3026         3.1672         3.1430         3.1921        21.6000 
      9596.0000         8.6970       124.7600        70.5847       154.1870         2.5600         2.5836         0.0000         3.3002         3.1244         3.0852         3.1363        21.9700 
      9596.5000         8.6970       115.5600        71.9719       153.9115         2.5500         2.5851        -0.0100         3.2127         3.0428         3.0102         3.0653        23.0300 
      9597.0000         8.6970       121.5300        72.0976       153.9138         2.5500         2.5664        -0.0100         3.2820         3.0905         3.0687         3.1018        22.9500 
      9597.5000         8.6970       117.9100        71.9607       153.7687         2.5800         2.5626         0.0100         3.3681         3.1906         3.1476         3.1986        22.3900 
      9598.0000         8.6970       117.4800        71.9045       153.5934         2.5900         2.5629         0.0000         3.3604         3.2200         3.2051         3.2958        22.0300 
      9598.5000         8.6970       112.4000        72.5218       153.6788         2.5700         2.5548        -0.0100         3.3468         3.2146         3.2219         3.3280        21.4300 
      9599.0000         8.6970       109.3200        71.7519       153.3384         2.5500         2.5450        -0.0200         3.3419         3.2201         3.2634         3.3432        21.2800 
      9599.5000         8.6970       111.3000        70.7585       153.4904         2.5500         2.5566         0.0000         3.3271         3.2221         3.2678         3.3393        21.3300 
      9600.0000         8.6970       114.5300        72.3345       153.3978         2.5500         2.5495         0.0000         3.2960         3.2003         3.2183         3.2812        21.4400 
      9600.5000         8.6970       116.5700        72.2531       152.9420         2.5700         2.5572         0.0000         3.3378         3.2084         3.2095         3.2554        22.0700 
      9601.0000         8.6970       115.0800        72.8427       152.3771         2.5700         2.5485         0.0000         3.3782         3.2518         3.2360         3.2725        22.0900 
      9601.5000         8.6970       115.5500        73.0036       151.8203         2.5700         2.5632        -0.0100         3.4522         3.3112         3.2940         3.3543        21.7200 
      9602.0000         8.6970       113.9700        72.0293       151.0732         2.5600         2.5693         0.0000         3.4925         3.3459         3.3294         3.3999        21.1100 
      9602.5000         8.6970       109.4900        71.3839       150.9255         2.5700         2.5702         0.0000         3.5115         3.3601         3.3518         3.4283        20.6900 
      9603.0000         8.6970       108.4400        70.2199       149.9827         2.5700         2.5824         0.0000         3.5465         3.4029         3.4007         3.4778        20.6000 
      9603.5000         8.6970       108.0600        70.1090       149.2915         2.5600         2.5681        -0.0100         3.5381         3.4223         3.4489         3.5378        21.1600 
      9604.0000         8.6970       115.5000        70.3263       149.6499         2.5700         2.5507         0.0000         3.4848         3.3782         3.4167         3.5095        20.9100 
      9604.5000         8.6970       118.2200        70.4507       150.8528         2.5700         2.5531         0.0000         3.4758         3.3605         3.3973         3.4811        21.0300 
      9605.0000         8.6970       117.0100        71.0045       152.5063         2.5400         2.5602        -0.0100         3.4957         3.3538         3.3802         3.4283        21.1600 
      9605.5000         8.6970       113.8900        72.2570       153.7434         2.5700         2.5401         0.0100         3.5388         3.3796         3.3822         3.4326        21.2600 
      9606.0000         8.6970       108.1900        73.1202       154.2823         2.5800         2.5506         0.0000         3.5531         3.3674         3.3442         3.4206        20.9400 
      9606.5000         8.6970       118.4400        72.3560       154.5746         2.5600         2.5690        -0.0100         3.6221         3.4152         3.3856         3.4291        20.7100 
      9607.0000         8.6970       110.8800        71.9010       154.3822         2.5700         2.5773        -0.0100         3.7014         3.5110         3.4763         3.4914        20.3800 
      9607.5000         8.6970       109.9700        71.5926       153.6065         2.5800         2.5724         0.0000         3.9289         3.8183         3.7683         3.8277        19.5500 
