~Version Information Block
VERS .                 2.00:  CWLS LOG ASCII STANDARD - VERSION 2.00
WRAP .                   NO:  One line per depth step
~Well Information Block
#MNEM.UNIT        Data Type   Information
#---------- ----------------  -----------
STRT .F                8542:  START DEPTH
STOP .F               10343:  STOP DEPTH
STEP .F                 0.5:  STEP
NULL .              -999.25:  NULL VALUE
COMP .     PETRO-CANADA UK LTD:  COMPANY
WELL .             12/25-4Y:  WELL
FLD  .               NUTMEG:  FIELD
LOC  .            NORTH SEA:  LOCATION
PROV .                 UKCS:  PROVINCE
SRVC .          HALLIBURTON:  SERVICE COMPANY
DATE .         SEP-OCT-2009:  LOG DATE
UWI  .               500044:  UNIQUE WELL ID
~Curve Information Block
#MNEM.UNIT         API CODE   Curve Description
#---------- ----------------  -----------------
DEPTH.F                    :  Depth Curve
ACCA .IN                   :  Edited Composite Caliper
CGRC .GAPI                 :  Edited Combined Gamma Ray
DTC  .US/F                 :  Edited BAT DTC - Compressional
DTRS .US/F                 :  Edited BAT Refracted Shear
HDBQ .G/CC                 :  Edited Density - Bottom Quad
HDTQ .G/CC                 :  Edited Density - Top Quad
HRBQ .G/CC                 :  Edited Delta Rho - Bot Quad
SEDP .OHMM                 :  Edited Deep Phase Resistivity
SEMP .OHMM                 :  Edited Medium Phase Resistivity
SESP .OHMM                 :  Edited Shallow Phase Resistivity
SEXP .OHMM                 :  Edited X-Shallow Phase Resistivity
TNPL .%                    :  Edited Thermal Neutron Porosity
~Parameter Information Block
#MNEM.UNIT            Value   Description
#---------- ----------------  -----------
SET  .             COMP_LWD:  
PROJ .            125TH_I_1:  
DATU .                  MSL:  
TDD  .F               10388:  
EKB  .F                  88:  
LATI .       58 16'56.460"N:  
LONG .       02 00'23.925"W:  
LMF  .                   RT:  
SURF .F                -301:  
~Other Information Block
~A        DEPTH           ACCA           CGRC            DTC           DTRS           HDBQ           HDTQ           HRBQ           SEDP           SEMP           SESP           SEXP           TNPL 
# ...
      8767.5000         8.6738       103.2600        63.1858       134.6348         2.5500         2.4944         0.0000        10.8608         9.1674         9.0997         9.8182        16.4600 
      8768.0000         8.6959        86.7500        59.4375       133.5260         2.5200         2.5599        -0.0100        10.2111         9.3667        10.0612        11.0914        16.7100 
      8768.5000         8.6970        78.3300        55.6891       136.9837         2.5300         2.5455         0.0000        10.7237        10.4943        11.4243        12.3430        16.6600 
      8769.0000         8.6970        75.5600        51.9408       143.8250         2.5600         2.5194         0.0100        10.9587        11.0250        12.1661        13.5709        16.9500 
      8769.5000         8.6970        90.8800        57.8136       150.7485         2.5700         2.5587         0.0100        10.1833        10.2155        11.3169        12.7433        19.4800 
      8770.0000         8.6970       105.0900        59.2099       153.3905         2.5200         2.5766        -0.0200         8.6868         8.4669         9.1052         9.7820        22.0000 
      8770.5000         8.6970       116.5500        59.1842       152.9952         2.4900         2.5296         0.0000         8.2720         7.9052         8.0069         8.1199        24.4600 
      8771.0000         8.6970       131.6400        60.2531       151.8803         2.4800         2.5104        -0.0100         8.1713         7.5579         7.3173         7.3476        25.0500 
      8771.5000         8.6970       134.5400        62.0607       150.0994         2.4800         2.4837        -0.0100         8.5275         7.7087         7.3241         7.4243        26.4800 
      8772.0000         8.6970       135.1000        61.8894       148.7608         2.4800         2.4828         0.0100         8.6118         7.8132         7.4754         7.7340        25.6000 
      8772.5000         8.6970       128.8700        63.2772       148.4936         2.4700         2.4946         0.0100         8.4687         7.6232         7.4183         7.8398        23.3700 
      8773.0000         8.6970       123.6200        63.8936       149.3244         2.4500         2.4810         0.0000         8.2283         7.5539         7.5566         8.1105        23.9200 
      8773.5000         8.6970       120.7600        63.4569       150.9473         2.4800         2.4907         0.0000         7.5161         6.9541         7.2448         7.7861        24.1700 
      8774.0000         8.6970       137.8200        60.2704       153.7125         2.5000         2.5031         0.0100         6.8770         6.2894         6.5812         7.1122        24.4200 
      8774.5000         8.6970       144.0500        63.1674       155.3234         2.4900         2.4991         0.0000         6.4210         5.8261         6.0610         6.4216        25.7200 
      8775.0000         8.6970       143.1100        64.5000       156.6014         2.5000         2.4985         0.0100         6.5595         5.8778         5.9356         6.0336        25.9800 
      8775.5000         8.6970       148.2500        64.5823       157.9152         2.5000         2.4987         0.0100         6.8859         6.1757         6.0213         6.0584        24.7000 
      8776.0000         8.6697       147.0800        64.8517       159.4141         2.4700         2.4618        -0.0100         6.9835         6.2372         6.1313         6.3140        25.8700 
      8776.5000         8.6143       145.1200        63.4296       159.3713         2.4200         2.4304        -0.0100         7.5119         6.8297         6.8357         7.0871        26.6200 
      8777.0000         8.6059       155.8700        62.8565       158.7053         2.3800         2.4271        -0.0100         7.9206         7.2390         7.2141         7.6762        27.8400 
      8777.5000         8.6059       180.3600        61.9978       159.1877         2.3600         2.4024        -0.0100         8.0233         7.4943         7.6820         8.4183        29.0500 
      8778.0000         8.6231       180.8100        60.9614       159.2027         2.3900         2.3850         0.0000         7.7207         7.3829         7.9562         8.5468        29.4900 
      8778.5000         8.6247       182.9800        61.5474       157.9577         2.4400         2.4053         0.0000         7.5992         7.2432         7.6081         8.0341        29.2300 
      8779.0000         8.6877       187.8800        60.4582       154.8905         2.4400         2.4300        -0.0100         7.0328         6.5542         6.6894         6.9120        27.2900 
      8779.5000         8.6970       196.1200        58.7674       148.4357         2.4200         2.4523         0.0000         7.6927         7.1196         6.9854         6.9163        26.9600 
      8780.0000         8.6970       178.7400        56.6379       142.0529         2.4600         2.4730         0.0100         8.2379         7.6674         7.3762         7.3600        26.7800 
      8780.5000         8.6970       129.6500        56.4396       138.2085         2.5000         2.5070         0.0100         8.4574         7.8754         7.6261         7.8748        24.2200 
      8781.0000         8.6970       108.8300        56.2389       135.8989         2.5000         2.5131         0.0000         8.5199         7.8818         7.8165         8.3830        21.6300 
      8781.5000         8.6970        99.8000        57.3137       134.6907         2.4900         2.4787        -0.0100         8.5505         7.8090         7.9904         8.5233        19.6400 
      8782.0000         8.6970        97.2200      -999.2500       134.0092         2.4500         2.4762        -0.0100         8.4788         7.7537         7.9617         8.4922        19.5200 
      8782.5000         8.6970       105.8700      -999.2500       134.6550         2.5000         2.4842         0.0000         9.2603         8.7122         8.8233         9.3143        19.1400 
      8783.0000         8.6970       100.1000      -999.2500       136.0716         2.5300         2.4822         0.0000        10.4917        10.1293        10.4451        11.3359        18.3300 
      8783.5000         8.6970        89.6500      -999.2500       137.0962         2.5500         2.4973         0.0000        11.0958        11.0567        11.9098        13.9638        17.4000 
      8784.0000         8.6358        99.1800      -999.2500       139.4060         2.5200         2.5374         0.0000         9.8915         9.7745        11.0045        12.9319        18.1900 
      8784.5000         8.6567       116.3100      -999.2500       145.3378         2.5200         2.5194         0.0100         9.5194         9.5267        10.7187        11.5925        22.8300 
      8785.0000         8.6970       134.2900      -999.2500       152.7451         2.5200         2.4963         0.0100         9.4698         9.3784        10.0288        10.4309        23.8600 
      8785.5000         8.6869       167.4200      -999.2500       155.9400         2.4500         2.5049         0.0100         8.8685         8.5378         8.7228         9.1092        25.8200 
      8786.0000         8.6239       191.3000      -999.2500       156.6776         2.4300         2.4596         0.0100         8.7950         8.1879         8.1763         8.2648        27.8500 
      8786.5000         8.6733       190.8300      -999.2500       156.3590         2.4400         2.4208         0.0100         8.7418         7.8115         7.6609         7.6529        29.5500 
      8787.0000         8.6957       168.5400      -999.2500       155.3948         2.4200         2.4435         0.0000         9.4703         8.6459         8.2465         8.3080        28.1100 
      8787.5000         8.6970       155.4000      -999.2500       154.2357         2.4500         2.4544         0.0100         9.2825         8.4375         8.3142         8.9754        25.2700 
