~Version Information Block
VERS .                 2.00:  CWLS LOG ASCII STANDARD - VERSION 2.00
WRAP .                   NO:  One line per depth step
~Well Information Block
#MNEM.UNIT        Data Type   Information
#---------- ----------------  -----------
STRT .F                8542:  START DEPTH
STOP .F               10343:  STOP DEPTH
STEP .F                 0.5:  STEP
NULL .              -999.25:  NULL VALUE
COMP .     PETRO-CANADA UK LTD:  COMPANY
WELL .             12/25-4Y:  WELL
FLD  .               NUTMEG:  FIELD
LOC  .            NORTH SEA:  LOCATION
PROV .                 UKCS:  PROVINCE
SRVC .          HALLIBURTON:  SERVICE COMPANY
DATE .         SEP-OCT-2009:  LOG DATE
UWI  .               500044:  UNIQUE WELL ID
~Curve Information Block
#MNEM.UNIT         API CODE   Curve Description
#---------- ----------------  -----------------
DEPTH.F                    :  Depth Curve
ACCA .IN                   :  Edited Composite Caliper
CGRC .GAPI                 :  Edited Combined Gamma Ray
DTC  .US/F                 :  Edited BAT DTC - Compressional
DTRS .US/F                 :  Edited BAT Refracted Shear
HDBQ .G/CC                 :  Edited Density - Bottom Quad
HDTQ .G/CC                 :  Edited Density - Top Quad
HRBQ .G/CC                 :  Edited Delta Rho - Bot Quad
SEDP .OHMM                 :  Edited Deep Phase Resistivity
SEMP .OHMM                 :  Edited Medium Phase Resistivity
SESP .OHMM                 :  Edited Shallow Phase Resistivity
SEXP .OHMM                 :  Edited X-Shallow Phase Resistivity
TNPL .%                    :  Edited Thermal Neutron Porosity
~Parameter Information Block
#MNEM.UNIT            Value   Description
#---------- ----------------  -----------
SET  .             COMP_LWD:  
PROJ .            125TH_I_1:  
DATU .                  MSL:  
TDD  .F               10388:  
EKB  .F                  88:  
LATI .       58 16'56.460"N:  
LONG .       02 00'23.925"W:  
LMF  .                   RT:  
SURF .F                -301:  
~Other Information Block
~A        DEPTH           ACCA           CGRC            DTC           DTRS           HDBQ           HDTQ           HRBQ           SEDP           SEMP           SESP           SEXP           TNPL 
# ...
      8665.0000         8.6407        75.4900      -999.2500       148.7457         2.3800         2.3885         0.0100         3.2472         3.2461         3.3060         3.3877        21.4400 
      8665.5000         8.6059        58.2100      -999.2500       145.2938         2.3600         2.3725         0.0100         3.3368         3.2365         3.1904         3.2534        20.4800 
      8666.0000         8.6059        55.4200      -999.2500       141.7911         2.3600         2.3533         0.0000         3.7005         3.4386         3.2966         3.3395        21.4700 
      8666.5000         8.6059        77.2100      -999.2500       139.1663         2.3900         2.3750         0.0100         4.4576         4.2089         3.9812         4.0914        22.1300 
      8667.0000         8.6101       101.7800      -999.2500       137.9614         2.4200         2.3963         0.0200         5.1158         4.8091         4.6826         5.0084        23.1900 
      8667.5000         8.6559       101.9000      -999.2500       137.3402         2.3900         2.4100         0.0200         5.6552         5.4373         5.2668         5.4254        21.8700 
      8668.0000         8.6853        74.7900      -999.2500       140.0314         2.4000         2.3989         0.0100         6.5644         6.7703         6.0682         6.1025        14.9900 
      8668.5000         8.6781        58.6300      -999.2500       144.3472         2.4700         2.3754         0.0100         7.2199         8.1838         7.1817         7.8849        13.6100 
      8669.0000         8.6970        50.2800      -999.2500       150.2807         2.5200         2.3762         0.0100         6.5215         7.1530         7.2602         8.1654        14.1500 
      8669.5000         8.6970        59.4200      -999.2500       153.1880         2.5300         2.3791         0.0200         5.6163         5.5403         5.8607         6.0829        17.3900 
      8670.0000         8.6970        67.6300      -999.2500       153.5207         2.4400         2.3752         0.0200         5.7529         5.3853         5.1910         4.7578        21.7700 
      8670.5000         8.6970        85.8800      -999.2500       151.4167         2.4000         2.3947         0.0000         6.3150         6.0748         5.1272         4.3869        22.1800 
      8671.0000         8.6916       106.0700      -999.2500       148.3310         2.4000         2.4156        -0.0100         6.6436         6.1686         5.0077         4.6355        23.6000 
      8671.5000         8.6677       105.1500      -999.2500       145.2683         2.4500         2.4388        -0.0100         6.3108         5.5578         4.7617         4.9060        22.8100 
      8672.0000         8.6943        84.0700      -999.2500       142.0745         2.4300         2.4388        -0.0100         5.9410         4.8791         4.5527         4.8258        22.2200 
      8672.5000         8.6970        84.4600      -999.2500       142.8437         2.4700         2.4221         0.0300         5.8802         4.7201         4.6070         4.7323        21.6200 
      8673.0000         8.6970        91.5200      -999.2500       147.0588         2.4700         2.4255         0.0300         5.4285         4.7470         4.7708         4.8832        19.7700 
      8673.5000         8.6970        89.2900      -999.2500       151.9584         2.4600         2.4504         0.0200         5.1044         4.7937         4.8875         5.1610        21.8400 
      8674.0000         8.6970        73.9400      -999.2500       157.3696         2.4100         2.4467         0.0000         4.5213         4.2485         4.4222         4.7037        22.8000 
      8674.5000         8.6970        96.8800      -999.2500       159.4162         2.4100         2.4313         0.0100         4.3618         4.0289         4.0898         4.1671        23.4000 
      8675.0000         8.6970       124.2100      -999.2500       157.4367         2.4200         2.4224         0.0100         4.4487         4.1921         4.1817         4.1742        28.0700 
      8675.5000         8.6828       138.3300      -999.2500       153.5104         2.4500         2.4380         0.0000         4.4173         4.1938         4.1436         4.1707        27.9800 
      8676.0000         8.6536       120.0000      -999.2500       147.3905         2.4300         2.4532         0.0000         4.3311         4.0894         4.0172         4.0946        24.5600 
      8676.5000         8.6357        89.3100      -999.2500       141.5331         2.4100         2.4270         0.0000         4.3353         4.0925         3.9953         4.0341        19.7900 
      8677.0000         8.6537        63.4800      -999.2500       138.2863         2.3800         2.4100         0.0000         4.3294         4.0873         4.0095         4.0405        17.0100 
      8677.5000         8.6181        44.3500      -999.2500       136.9981         2.3900         2.3989         0.0000         4.3244         4.0561         3.9734         4.0580        15.8600 
      8678.0000         8.6072        47.7400      -999.2500       137.3331         2.4300         2.4174         0.0200         4.6203         4.3627         4.2653         4.3921        15.8300 
      8678.5000         8.6259        65.6000      -999.2500       138.4166         2.4500         2.4553         0.0100         4.8317         4.6349         4.6409         4.9089        16.2700 
      8679.0000         8.6880        90.4600      -999.2500       139.4657         2.4400         2.4711         0.0000         4.5556         4.3205         4.5714         5.0929        17.0400 
      8679.5000         8.6970        89.9600      -999.2500       139.6814         2.4100         2.4397         0.0000         4.4175         4.0518         4.3252         4.6841        19.5300 
      8680.0000         8.6970        80.6400      -999.2500       138.4840         2.4300         2.3935         0.0100         4.7180         4.2807         4.3686         4.4697        19.5300 
      8680.5000         8.6970        97.1100      -999.2500       135.6814         2.4700         2.4246         0.0100         5.3015         4.8198         4.7185         4.7386        19.8600 
      8681.0000         8.6970       118.1000      -999.2500       132.9106         2.5000         2.4591         0.0000         6.1935         5.6124         5.3318         5.5230        20.3700 
      8681.5000         8.6930       126.3400      -999.2500       132.0618         2.5500         2.5168         0.0000         7.2945         6.6779         6.5026         6.8664        18.8600 
      8682.0000         8.6491        81.7100      -999.2500       132.9845         2.6000         2.5781         0.0200         8.9867         8.9288         9.3281        10.5615        16.0300 
      8682.5000         8.7110        64.1200      -999.2500       135.7299         2.6000         2.5883         0.0200         9.0373         9.3684        10.5503        13.2955        11.8700 
      8683.0000         8.7507        65.4900      -999.2500       140.8020         2.5300         2.5776        -0.0100         8.5339         9.1080        10.9116        14.7205        11.5600 
      8683.5000         8.7151        91.3200      -999.2500       146.5382         2.5000         2.5479        -0.0100         7.7071         8.1003         9.7407        12.2537        14.6300 
      8684.0000         8.6970       110.5600      -999.2500       149.9247         2.4900         2.5271         0.0000         7.0483         7.0330         7.3047         7.2031        17.9200 
      8684.5000         8.6970       111.3600      -999.2500       151.1422         2.4700         2.5129        -0.0100         7.0754         6.7640         6.3532         6.2108        21.6900 
      8685.0000         8.6970       119.8800      -999.2500       150.9837         2.4900         2.4994         0.0100         7.1439         6.5155         5.9270         5.8605        23.0800 
