~Version Information Block
VERS .                 2.00:  CWLS LOG ASCII STANDARD - VERSION 2.00
WRAP .                   NO:  One line per depth step
~Well Information Block
#MNEM.UNIT        Data Type   Information
#---------- ----------------  -----------
STRT .F                8542:  START DEPTH
STOP .F               10343:  STOP DEPTH
STEP .F                 0.5:  STEP
NULL .              -999.25:  NULL VALUE
COMP .     PETRO-CANADA UK LTD:  COMPANY
WELL .             12/25-4Y:  WELL
FLD  .               NUTMEG:  FIELD
LOC  .            NORTH SEA:  LOCATION
PROV .                 UKCS:  PROVINCE
SRVC .          HALLIBURTON:  SERVICE COMPANY
DATE .         SEP-OCT-2009:  LOG DATE
UWI  .               500044:  UNIQUE WELL ID
~Curve Information Block
#MNEM.UNIT         API CODE   Curve Description
#---------- ----------------  -----------------
DEPTH.F                    :  Depth Curve
ACCA .IN                   :  Edited Composite Caliper
CGRC .GAPI                 :  Edited Combined Gamma Ray
DTC  .US/F                 :  Edited BAT DTC - Compressional
DTRS .US/F                 :  Edited BAT Refracted Shear
HDBQ .G/CC                 :  Edited Density - Bottom Quad
HDTQ .G/CC                 :  Edited Density - Top Quad
HRBQ .G/CC                 :  Edited Delta Rho - Bot Quad
SEDP .OHMM                 :  Edited Deep Phase Resistivity
SEMP .OHMM                 :  Edited Medium Phase Resistivity
SESP .OHMM                 :  Edited Shallow Phase Resistivity
SEXP .OHMM                 :  Edited X-Shallow Phase Resistivity
TNPL .%                    :  Edited Thermal Neutron Porosity
~Parameter Information Block
#MNEM.UNIT            Value   Description
#---------- ----------------  -----------
SET  .             COMP_LWD:  
PROJ .            125TH_I_1:  
DATU .                  MSL:  
TDD  .F               10388:  
EKB  .F                  88:  
LATI .       58 16'56.460"N:  
LONG .       02 00'23.925"W:  
LMF  .                   RT:  
SURF .F                -301:  
~Other Information Block
~A        DEPTH           ACCA           CGRC            DTC           DTRS           HDBQ           HDTQ           HRBQ           SEDP           SEMP           SESP           SEXP           TNPL 
# ...
      9464.5000         8.6138        63.9200        80.4154       173.2785         2.3400         2.3205         0.0100         1.5450         1.5352         1.5286         1.5340        24.6700 
      9465.0000         8.6723        61.9300        80.6570       173.8609         2.3300         2.3223         0.0100         1.5554         1.5443         1.5324         1.5461        25.2700 
      9465.5000         8.7788        65.4400        80.0395       173.9249         2.3600         2.3185         0.0200         1.5733         1.5573         1.5490         1.5598        25.1300 
      9466.0000         8.7698        70.8000        79.9528       173.0149         2.3400         2.3158         0.0100         1.5982         1.5923         1.5835         1.5840        25.2900 
      9466.5000         8.7408        72.9700        79.6595       170.8235         2.3400         2.3394         0.0100         1.5996         1.6032         1.6012         1.6166        24.5000 
      9467.0000         8.7140        68.1600        77.5664       166.8892         2.3400         2.3445         0.0100         1.6114         1.5973         1.6032         1.6286        22.8300 
      9467.5000         8.6904        65.8500        76.7330       163.4275         2.3600         2.3492         0.0100         1.6813         1.6118         1.6173         1.6396        21.0900 
      9468.0000         8.6233        65.2200        75.7209       160.2431         2.3800         2.3660        -0.0100         1.8777         1.7496         1.7225         1.7345        18.9200 
      9468.5000         8.6658        73.0600        74.4611       157.2669         2.4300         2.3800         0.0000         2.3265         2.1778         2.0788         2.1029        17.8200 
      9469.0000         8.6521        75.9700        73.9974       153.9876         2.4700         2.4138         0.0000         2.7643         2.6740         2.5672         2.6417        17.7100 
      9469.5000         8.6970        89.9400        73.2706       151.1007         2.5000         2.4855         0.0000         3.0143         3.0351         3.0522         3.2239        17.4200 
      9470.0000         8.6970       101.1800        73.0594       148.8988         2.5200         2.5185         0.0000         3.0649         3.2299         3.3507         3.5221        17.3000 
      9470.5000         8.6970       110.0000        73.6093       148.2664         2.5100         2.5101         0.0000         3.1172         3.3883         3.5569         3.6669        18.1800 
      9471.0000         8.6970       100.0600        74.3340       148.2656         2.5200         2.5190         0.0100         3.0652         3.3681         3.5407         3.6220        18.6200 
      9471.5000         8.6970        92.2800        74.4301       148.5697         2.5200         2.5220         0.0100         2.8696         3.1415         3.2512         3.3465        18.2800 
      9472.0000         8.6895        88.6700        73.8658       149.3632         2.4800         2.5057         0.0000         2.5857         2.6655         2.7418         2.8076        18.2800 
      9472.5000         8.6299        70.5900        72.1751       149.1968         2.4400         2.4866        -0.0100         2.5570         2.4754         2.4820         2.4998        18.6000 
      9473.0000         8.6059        61.4500        70.7462       148.6444         2.4100         2.4407        -0.0100         2.5857         2.3927         2.3385         2.3318        17.8800 
      9473.5000         8.6059        66.5700        70.2544       148.0655         2.4200         2.4364         0.0000         2.7672         2.4844         2.4429         2.4379        16.6000 
      9474.0000         8.6113        66.3100        70.1695       147.9706         2.4400         2.4301         0.0000         3.1974         2.9428         2.8554         2.9217        16.2100 
      9474.5000         8.6618        73.1200        70.4052       148.6276         2.5000         2.4551         0.0000         3.3035         3.1761         3.1738         3.3769        15.7500 
      9475.0000         8.6948        96.5300        71.3250       149.7813         2.5200         2.5146         0.0100         3.3126         3.3296         3.4998         3.7079        15.6600 
      9475.5000         8.6810       120.3200        72.2010       151.1606         2.5500         2.5389         0.0000         3.3233         3.4005         3.6423         3.8260        16.2600 
      9476.0000         8.6694       123.3100        71.8857       152.7918         2.5500         2.5414        -0.0100         3.2865         3.3942         3.5827         3.7379        18.4300 
      9476.5000         8.6970       125.0000        71.4840       153.8918         2.5600         2.5429        -0.0100         3.2586         3.3479         3.4605         3.5609        20.8100 
      9477.0000         8.6970       124.3100        70.5960       154.9067         2.5700         2.5530         0.0000         3.3006         3.3363         3.3900         3.4198        22.2200 
      9477.5000         8.6970       124.8900        70.8256       155.7151         2.5800         2.5787         0.0000         3.3507         3.3200         3.3001         3.3047        22.8100 
      9478.0000         8.6970       117.7500        71.9310       156.0931         2.5900         2.5758        -0.0100         3.3815         3.3047         3.2471         3.2615        23.3500 
      9478.5000         8.6970       130.5100        73.2663       156.2889         2.5800         2.5720         0.0000         3.4255         3.2591         3.1953         3.2353        24.2700 
      9479.0000         8.6970       125.2200        73.7333       156.7981         2.5900         2.5721         0.0100         3.4421         3.2101         3.1559         3.2116        23.8400 
      9479.5000         8.6970       129.6200        73.6145       156.7680         2.5800         2.5589         0.0000         3.3862         3.1678         3.1232         3.1858        23.6600 
      9480.0000         8.6970       138.4800        73.7581       156.5958         2.5800         2.5716         0.0000         3.3149         3.1202         3.0942         3.1627        23.8500 
      9480.5000         8.6970       133.5300        73.4973       156.6810         2.5600         2.5812        -0.0100         3.2454         3.1028         3.0740         3.1280        24.2900 
      9481.0000         8.6970       137.6700        75.5504       157.0691         2.5600         2.5550         0.0000         3.0743         3.0109         3.0017         3.0651        24.9400 
      9481.5000         8.6961       121.4200        78.0459       158.0058         2.5100         2.5463         0.0000         2.8186         2.8372         2.8335         2.8871        24.3600 
      9482.0000         8.6592       105.1900        78.0240       159.6248         2.4300         2.5138         0.0000         2.2946         2.3635         2.3517         2.4057        23.5500 
      9482.5000         8.6113        76.3300        76.7532       161.3350         2.3800         2.4617         0.0000         1.6249         1.6513         1.6700         1.6863        23.0800 
      9483.0000         8.6436        59.8600        75.8901       162.4972         2.3600         2.4177        -0.0100         1.3535         1.3384         1.3287         1.3176        22.4500 
      9483.5000         8.6330        52.2200        77.0706       163.2040         2.3500         2.3683         0.0100         1.1895         1.1220         1.1090         1.0999        22.4200 
      9484.0000         8.6064        60.6700        79.1256       163.6342         2.3000         2.3296         0.0100         1.1845         1.0964         1.0773         1.0743        22.1500 
      9484.5000         8.6059        60.1600        81.2467       162.6669         2.2900         2.2927        -0.0100         1.2541         1.1642         1.1342         1.1436        22.1200 
