~Version Information Block
VERS .                 2.00:  CWLS LOG ASCII STANDARD - VERSION 2.00
WRAP .                   NO:  One line per depth step
~Well Information Block
#MNEM.UNIT        Data Type   Information
#---------- ----------------  -----------
STRT .F                8542:  START DEPTH
STOP .F               10343:  STOP DEPTH
STEP .F                 0.5:  STEP
NULL .              -999.25:  NULL VALUE
COMP .     PETRO-CANADA UK LTD:  COMPANY
WELL .             12/25-4Y:  WELL
FLD  .               NUTMEG:  FIELD
LOC  .            NORTH SEA:  LOCATION
PROV .                 UKCS:  PROVINCE
SRVC .          HALLIBURTON:  SERVICE COMPANY
DATE .         SEP-OCT-2009:  LOG DATE
UWI  .               500044:  UNIQUE WELL ID
~Curve Information Block
#MNEM.UNIT         API CODE   Curve Description
#---------- ----------------  -----------------
DEPTH.F                    :  Depth Curve
ACCA .IN                   :  Edited Composite Caliper
CGRC .GAPI                 :  Edited Combined Gamma Ray
DTC  .US/F                 :  Edited BAT DTC - Compressional
DTRS .US/F                 :  Edited BAT Refracted Shear
HDBQ .G/CC                 :  Edited Density - Bottom Quad
HDTQ .G/CC                 :  Edited Density - Top Quad
HRBQ .G/CC                 :  Edited Delta Rho - Bot Quad
SEDP .OHMM                 :  Edited Deep Phase Resistivity
SEMP .OHMM                 :  Edited Medium Phase Resistivity
SESP .OHMM                 :  Edited Shallow Phase Resistivity
SEXP .OHMM                 :  Edited X-Shallow Phase Resistivity
TNPL .%                    :  Edited Thermal Neutron Porosity
~Parameter Information Block
#MNEM.UNIT            Value   Description
#---------- ----------------  -----------
SET  .             COMP_LWD:  
PROJ .            125TH_I_1:  
DATU .                  MSL:  
TDD  .F               10388:  
EKB  .F                  88:  
LATI .       58 16'56.460"N:  
LONG .       02 00'23.925"W:  
LMF  .                   RT:  
SURF .F                -301:  
~Other Information Block
~A        DEPTH           ACCA           CGRC            DTC           DTRS           HDBQ           HDTQ           HRBQ           SEDP           SEMP           SESP           SEXP           TNPL 
# ...
      9710.5000         8.6970       117.6300        72.5935       155.6184         2.5800         2.5789        -0.0100         3.4146         3.3237         3.3452         3.4261        23.1700 
      9711.0000         8.6970       118.3700        71.2685       155.4763         2.5700         2.5861         0.0000         3.3795         3.3056         3.3383         3.4238        23.0300 
      9711.5000         8.6970       118.7900        69.8148       155.1414         2.5700         2.5749         0.0000         3.3072         3.2433         3.2993         3.3814        22.9400 
      9712.0000         8.6970       120.0800        69.9108       154.8778         2.5800         2.5653         0.0100         3.2343         3.1817         3.2196         3.3030        22.3000 
      9712.5000         8.6970       117.0600        69.8641       154.8777         2.5700         2.5645         0.0000         3.1634         3.0918         3.1242         3.2052        22.1300 
      9713.0000         8.6970       117.1000        69.3549       154.9053         2.5600         2.5655        -0.0100         3.1014         3.0108         3.0251         3.0774        22.8500 
      9713.5000         8.6970       122.6800        68.2836       155.5986         2.5600         2.5633         0.0100         3.0703         2.9564         2.9512         2.9937        23.1400 
      9714.0000         8.6970       129.3600        69.1292       156.8421         2.5700         2.5759         0.0000         3.0538         2.9259         2.9090         2.9476        23.3100 
      9714.5000         8.6970       123.7000        70.5177       158.4147         2.5800         2.5664         0.0100         3.0565         2.8964         2.8795         2.9193        23.1000 
      9715.0000         8.6970       129.8700        71.7518       159.9317         2.5600         2.5521         0.0000         3.0580         2.9070         2.8920         2.9414        23.5400 
      9715.5000         8.6970       125.1200        71.7747       161.1009         2.5600         2.5672         0.0000         3.0959         2.9545         2.9452         2.9801        24.6400 
      9716.0000         8.6970       121.9800        71.1859       162.2386         2.5400         2.5573        -0.0100         3.0974         2.9682         2.9716         3.0439        25.0000 
      9716.5000         8.6970       121.4600        70.7907       162.7570         2.5400         2.5563        -0.0100         3.0752         2.9540         2.9709         3.0536        25.1100 
      9717.0000         8.6994       120.9900        69.8795       162.4346         2.5500         2.5575         0.0000         3.0747         2.9679         2.9881         3.0572        24.7300 
      9717.5000         8.7264       123.0300        70.7208       161.6736         2.5500         2.5540        -0.0100         3.1081         3.0031         3.0271         3.0759        24.7500 
      9718.0000         8.7026       125.7500        71.9147       160.6636         2.5500         2.5456        -0.0100         3.1241         3.0568         3.0721         3.1313        24.4500 
      9718.5000         8.6970       118.2100        72.1048       159.7957         2.5600         2.5527         0.0000         3.1446         3.0802         3.1014         3.1492        23.8300 
      9719.0000         8.6970       120.9500        71.6708       159.1286         2.5700         2.5733         0.0000         3.1356         3.0507         3.0832         3.1426        23.8400 
      9719.5000         8.7245       118.8200        71.8883       159.0137         2.5500         2.5737         0.0000         3.1570         3.0514         3.0947         3.1510        23.7400 
      9720.0000         8.7037       118.6600        71.3537       158.9218         2.5500         2.5678         0.0000         3.1984         3.0877         3.1115         3.1693        23.9600 
      9720.5000         8.7130       114.8100        72.7744       159.2063         2.5500         2.5576        -0.0100         3.2163         3.0878         3.0992         3.1481        23.6300 
      9721.0000         8.6998       111.3500        74.1309       159.3682         2.5700         2.5620         0.0000         3.2888         3.1247         3.1091         3.1608        22.8600 
      9721.5000         8.6970       114.1500        73.9753       159.1670         2.5700         2.5565         0.0100         3.3803         3.1848         3.1612         3.1854        22.5800 
      9722.0000         8.6970       120.1400        73.2675       159.4905         2.5600         2.5605         0.0000         3.5376         3.3626         3.3312         3.3607        23.4300 
      9722.5000         8.6987       119.5100        72.5409       159.4013         2.5500         2.5527         0.0000         3.6732         3.5591         3.5255         3.6004        23.7900 
      9723.0000         8.6980       125.9500        71.3055       158.7445         2.5600         2.5486         0.0000         3.5677         3.4549         3.4820         3.6156        23.0200 
      9723.5000         8.6970       121.1200        71.2713       157.9084         2.5700         2.5704         0.0100         3.4762         3.3630         3.4126         3.5363        22.7400 
      9724.0000         8.6970       118.3600        71.9451       157.1063         2.5700         2.5629         0.0000         3.5136         3.4057         3.4569         3.5071        22.1400 
      9724.5000         8.6970       115.2900        72.8651       155.8752         2.5800         2.5464         0.0000         3.5182         3.4306         3.4490         3.4725        21.6900 
      9725.0000         8.6970       112.0300        73.8337       155.4220         2.5800         2.5673         0.0000         3.4638         3.3826         3.3713         3.4203        22.0400 
      9725.5000         8.6970       112.4000        74.1551       155.2119         2.5800         2.5671         0.0000         3.4163         3.3325         3.3167         3.3889        21.3200 
      9726.0000         8.6970       122.1300        73.8712       154.7571         2.5600         2.5569        -0.0100         3.3937         3.2801         3.2804         3.3488        21.5300 
      9726.5000         8.6970       118.8800        73.0073       154.8791         2.5600         2.5679         0.0100         3.3368         3.1989         3.2146         3.2837        22.2200 
      9727.0000         8.6970       110.0600        72.3865       155.3950         2.5500         2.5617         0.0000         3.2678         3.1340         3.1571         3.2253        22.1900 
      9727.5000         8.6970       108.7300        73.2511       155.9606         2.5700         2.5452         0.0100         3.2439         3.0897         3.1078         3.1581        21.5400 
      9728.0000         8.6970       119.7100        74.0587       156.5577         2.5800         2.5475         0.0100         3.2492         3.0776         3.0847         3.1473        21.4400 
      9728.5000         8.6970       113.0000        74.5447       156.3144         2.5700         2.5403         0.0100         3.3257         3.1345         3.1310         3.1815        21.3700 
      9729.0000         8.6970       125.8800        74.7483       156.3130         2.5600         2.5390         0.0000         3.4019         3.2222         3.2086         3.2526        21.7100 
      9729.5000         8.6970       124.1400        75.3656       156.1776         2.5700         2.5428         0.0000         3.4859         3.3079         3.2945         3.3673        22.0100 
      9730.0000         8.6970       122.6000        75.6209       156.1308         2.5600         2.5588         0.0000         3.5337         3.3911         3.3908         3.4729        21.8500 
      9730.5000         8.6970       124.7600        74.8715       156.4576         2.5500         2.5646         0.0000         3.6476         3.5608         3.5469         3.6206        22.8100 
