~Version Information Block
VERS .                 2.00:  CWLS LOG ASCII STANDARD - VERSION 2.00
WRAP .                   NO:  One line per depth step
~Well Information Block
#MNEM.UNIT        Data Type   Information
#---------- ----------------  -----------
STRT .F                8542:  START DEPTH
STOP .F               10343:  STOP DEPTH
STEP .F                 0.5:  STEP
NULL .              -999.25:  NULL VALUE
COMP .     PETRO-CANADA UK LTD:  COMPANY
WELL .             12/25-4Y:  WELL
FLD  .               NUTMEG:  FIELD
LOC  .            NORTH SEA:  LOCATION
PROV .                 UKCS:  PROVINCE
SRVC .          HALLIBURTON:  SERVICE COMPANY
DATE .         SEP-OCT-2009:  LOG DATE
UWI  .               500044:  UNIQUE WELL ID
~Curve Information Block
#MNEM.UNIT         API CODE   Curve Description
#---------- ----------------  -----------------
DEPTH.F                    :  Depth Curve
ACCA .IN                   :  Edited Composite Caliper
CGRC .GAPI                 :  Edited Combined Gamma Ray
DTC  .US/F                 :  Edited BAT DTC - Compressional
DTRS .US/F                 :  Edited BAT Refracted Shear
HDBQ .G/CC                 :  Edited Density - Bottom Quad
HDTQ .G/CC                 :  Edited Density - Top Quad
HRBQ .G/CC                 :  Edited Delta Rho - Bot Quad
SEDP .OHMM                 :  Edited Deep Phase Resistivity
SEMP .OHMM                 :  Edited Medium Phase Resistivity
SESP .OHMM                 :  Edited Shallow Phase Resistivity
SEXP .OHMM                 :  Edited X-Shallow Phase Resistivity
TNPL .%                    :  Edited Thermal Neutron Porosity
~Parameter Information Block
#MNEM.UNIT            Value   Description
#---------- ----------------  -----------
SET  .             COMP_LWD:  
PROJ .            125TH_I_1:  
DATU .                  MSL:  
TDD  .F               10388:  
EKB  .F                  88:  
LATI .       58 16'56.460"N:  
LONG .       02 00'23.925"W:  
LMF  .                   RT:  
SURF .F                -301:  
~Other Information Block
~A        DEPTH           ACCA           CGRC            DTC           DTRS           HDBQ           HDTQ           HRBQ           SEDP           SEMP           SESP           SEXP           TNPL 
# ...
      8890.5000         8.6970       226.9300      -999.2500       168.6320         2.3400         2.3571         0.0100         9.6353         9.2195         9.8631        11.0737        33.4000 
      8891.0000         8.6970       240.2900        69.3382       169.5817         2.3500         2.3531         0.0000         9.4330         9.0465         9.8097        10.7003        34.6300 
      8891.5000         8.6970       233.0700        67.3801       171.1082         2.3600         2.3703        -0.0100         9.5325         9.0102         9.4652        10.0906        34.8900 
      8892.0000         8.6970       228.2800        65.4219       172.6244         2.3800         2.3645         0.0100         9.3689         8.7550         8.9706         9.3968        34.9700 
      8892.5000         8.6970       221.9400        63.4638       173.7385         2.3500         2.3754         0.0100         9.3133         8.5677         8.7157         9.0688        35.2800 
      8893.0000         8.6970       228.8600        61.5056       173.8619         2.3300         2.3603         0.0000         9.9665         9.1128         9.0924         9.5403        35.5500 
      8893.5000         8.6970       235.3900        59.5475       173.4637         2.3200         2.3322         0.0000        10.5796         9.6831         9.7608        10.5357        35.3700 
      8894.0000         8.6970       238.3300        57.5894       170.7444         2.3200         2.3219         0.0100        10.1567         9.2421         9.7588        10.6348        34.4400 
      8894.5000         8.6970       231.7200        60.6959       167.9117         2.3400         2.3295         0.0000        10.2539         9.4119         9.9382        10.8149        34.1900 
      8895.0000         8.6970       237.3900        61.0266       165.9265         2.3300         2.3217         0.0000        10.2573         9.5133         9.9018        10.6910        33.8200 
      8895.5000         8.6970       232.6200        61.3802       162.4039         2.3300         2.3575         0.0000        10.3110         9.5963         9.9292        10.6916        33.2600 
      8896.0000         8.6970       232.1800        62.0530       157.9904         2.3600         2.3470         0.0100        10.5582         9.7451        10.1006        10.9110        33.3300 
      8896.5000         8.6970       233.1500        64.2385       152.7504         2.3700         2.3550         0.0100        10.5656         9.9291        10.3115        11.0907        31.1100 
      8897.0000         8.6970       183.3100        65.2034       149.6216         2.3900         2.3478        -0.0100        10.9138        10.3183        10.7498        11.5019        24.9100 
      8897.5000         8.6970       142.8900        65.8992       148.6329         2.4600         2.3724         0.0200        10.9464        10.4948        11.0641        12.1104        21.8700 
      8898.0000         8.6970       100.7800        66.4716       152.1060         2.4400         2.4298         0.0100        11.6899        11.2817        11.8574        13.1929        19.8500 
      8898.5000         8.6970       117.4100        66.9207       155.8267         2.4100         2.4273         0.0200        11.5266        11.0048        11.6904        12.9691        22.6600 
      8899.0000         8.6970       172.0100        66.3793       157.9402         2.4000         2.3990         0.0200        10.6831        10.0777        11.2117        12.2213        26.5300 
      8899.5000         8.6970       208.0800        65.0173       160.4230         2.4000         2.3939         0.0000        10.7425        10.1215        10.8369        11.3855        30.8800 
      8900.0000         8.6970       226.7600        63.6905       162.4366         2.4100         2.4076         0.0100        10.6461        10.0118        10.1242        10.7870        31.4800 
      8900.5000         8.6970       233.8800        63.3259       163.9059         2.4000         2.4083         0.0000         9.9391         9.0120         9.2081         9.7858        31.5300 
      8901.0000         8.6970       234.0700        62.5558       164.9554         2.4000         2.3995         0.0000         9.5771         8.3833         8.5751         8.9087        31.6300 
      8901.5000         8.6970       233.2900        63.1284       165.3520         2.4000         2.3825         0.0100         9.5315         8.2960         8.3370         8.7468        31.7900 
      8902.0000         8.6970       220.8200      -999.2500       164.7465         2.4000         2.3741         0.0000         9.5280         8.1322         8.1719         8.6705        32.1100 
      8902.5000         8.6970       222.6600      -999.2500       160.8850         2.3900         2.3939         0.0000         9.5033         7.9774         8.0946         8.5850        32.6100 
      8903.0000         8.6970       224.5900      -999.2500       155.9098         2.4000         2.4138         0.0100         9.6484         8.0654         8.2137         8.6716        32.2100 
      8903.5000         8.6970       217.0700      -999.2500       146.7936         2.3800         2.3973        -0.0100        10.5171         8.7011         8.7087         9.2653        31.2000 
      8904.0000         8.6970       216.4100      -999.2500       134.4828         2.4100         2.4029         0.0100        11.1158         9.1702         9.1472         9.8130        29.8800 
      8904.5000         8.6970       203.8100      -999.2500       116.7505         2.4100         2.4176         0.0000        11.4351         9.3585         9.3651         9.7649        28.3000 
      8905.0000         8.6970       184.7900      -999.2500       106.8176         2.4500         2.4164        -0.0100        12.8577        10.9527        10.4993        10.6131        20.5000 
      8905.5000         8.6970       151.7400      -999.2500       101.9853         2.5800         2.4463         0.0100        14.3680        12.5503        11.6100        11.8472         7.8100 
      8906.0000         8.6970       110.4800      -999.2500        98.0829         2.6300         2.4908         0.0100        17.2018        15.6911        14.6981        16.2138         5.0000 
      8906.5000         8.6970        64.2100      -999.2500        94.3409         2.6500         2.6042         0.0100        26.6957        27.5857        34.0090        68.3633         3.8400 
      8907.0000         8.6970        42.1000      -999.2500        92.2141         2.6500         2.6440         0.0100        27.8603        32.7786        55.1269       145.0452         3.2700 
      8907.5000         8.6970        37.5300      -999.2500        94.9689         2.6300         2.6431         0.0000        29.5720        40.1413        79.3530       884.9488         3.2600 
      8908.0000         8.6970        39.7400      -999.2500        99.4040         2.6300         2.6285         0.0000        31.7698        48.6545        91.0599      1440.9596         3.8700 
      8908.5000         8.6970        41.2900      -999.2500       109.3039         2.6500         2.6484         0.0100        33.6538        49.0848        91.0073       920.9276         5.5700 
      8909.0000         8.6970        65.3200      -999.2500       127.5231         2.5700         2.6243         0.0000        34.3947        43.6699        70.4590       268.0312         8.0300 
      8909.5000         8.6965       101.0700      -999.2500       143.9563         2.5300         2.6077         0.0300        31.5067        37.1193        48.1923        75.9341        12.9400 
      8910.0000         8.6827       156.1100      -999.2500       152.7781         2.4600         2.5692         0.0200        21.3038        22.8744        25.3244        30.2743        20.2100 
      8910.5000         8.6128       185.1700      -999.2500       158.2914         2.4200         2.4738         0.0100        15.2176        14.6661        14.6715        14.7278        27.7800 
