~Version Information Block
VERS .                 2.00:  CWLS LOG ASCII STANDARD - VERSION 2.00
WRAP .                   NO:  One line per depth step
~Well Information Block
#MNEM.UNIT        Data Type   Information
#---------- ----------------  -----------
STRT .F                8542:  START DEPTH
STOP .F               10343:  STOP DEPTH
STEP .F                 0.5:  STEP
NULL .              -999.25:  NULL VALUE
COMP .     PETRO-CANADA UK LTD:  COMPANY
WELL .             12/25-4Y:  WELL
FLD  .               NUTMEG:  FIELD
LOC  .            NORTH SEA:  LOCATION
PROV .                 UKCS:  PROVINCE
SRVC .          HALLIBURTON:  SERVICE COMPANY
DATE .         SEP-OCT-2009:  LOG DATE
UWI  .               500044:  UNIQUE WELL ID
~Curve Information Block
#MNEM.UNIT         API CODE   Curve Description
#---------- ----------------  -----------------
DEPTH.F                    :  Depth Curve
ACCA .IN                   :  Edited Composite Caliper
CGRC .GAPI                 :  Edited Combined Gamma Ray
DTC  .US/F                 :  Edited BAT DTC - Compressional
DTRS .US/F                 :  Edited BAT Refracted Shear
HDBQ .G/CC                 :  Edited Density - Bottom Quad
HDTQ .G/CC                 :  Edited Density - Top Quad
HRBQ .G/CC                 :  Edited Delta Rho - Bot Quad
SEDP .OHMM                 :  Edited Deep Phase Resistivity
SEMP .OHMM                 :  Edited Medium Phase Resistivity
SESP .OHMM                 :  Edited Shallow Phase Resistivity
SEXP .OHMM                 :  Edited X-Shallow Phase Resistivity
TNPL .%                    :  Edited Thermal Neutron Porosity
~Parameter Information Block
#MNEM.UNIT            Value   Description
#---------- ----------------  -----------
SET  .             COMP_LWD:  
PROJ .            125TH_I_1:  
DATU .                  MSL:  
TDD  .F               10388:  
EKB  .F                  88:  
LATI .       58 16'56.460"N:  
LONG .       02 00'23.925"W:  
LMF  .                   RT:  
SURF .F                -301:  
~Other Information Block
~A        DEPTH           ACCA           CGRC            DTC           DTRS           HDBQ           HDTQ           HRBQ           SEDP           SEMP           SESP           SEXP           TNPL 
# ...
      9239.0000         8.6970        45.8800      -999.2500       129.9928         2.3200         2.2952         0.0200         2.5642         2.3240         2.3504         2.5147        24.8900 
      9239.5000         8.6970        44.4000      -999.2500       128.7370         2.3000         2.2928         0.0000         2.6213         2.4319         2.4205         2.5669        24.8300 
      9240.0000         8.6970        44.8500      -999.2500       127.4909         2.3100         2.3039         0.0100         2.7552         2.5391         2.4838         2.6045        23.3300 
      9240.5000         8.6970        42.9800      -999.2500       125.0309         2.3700         2.3210         0.0100         3.1590         2.8010         2.6916         2.7876        22.2300 
      9241.0000         8.6970        41.2600      -999.2500       121.5151         2.4500         2.3430         0.0000         3.4303         3.1207         2.9940         3.1486        19.3200 
      9241.5000         8.6970        44.2000      -999.2500       119.2969         2.5100         2.4015         0.0100         3.5740         3.4155         3.3430         3.6656        17.3600 
      9242.0000         8.6970        46.6700      -999.2500       118.0693         2.5100         2.3929         0.0000         3.6382         3.5833         3.7840         4.1469        16.1800 
      9242.5000         8.6970        46.4500      -999.2500       117.2911         2.5300         2.3366         0.0000         3.6798         3.8851         4.2577         4.5827        14.9100 
      9243.0000         8.6970        36.4400      -999.2500       117.4800         2.5600         2.3753         0.0100         3.6420         4.0520         4.4623         4.8415        15.1500 
      9243.5000         8.6834        35.4100      -999.2500       118.3894         2.5400         2.4462         0.0100         3.2660         3.5220         3.9789         4.4656        15.9900 
      9244.0000         8.5907        39.8100      -999.2500       120.1239         2.4300         2.4879         0.0000         3.4054         3.6546         4.0070         4.3578        16.3200 
      9244.5000         8.5623        39.3000      -999.2500       121.9311         2.3900         2.5044         0.0100         3.7353         4.1349         4.5407         4.7312        18.3000 
      9245.0000         8.6868        35.3500      -999.2500       124.1984         2.3800         2.5413         0.0100         3.7275         4.2188         4.6127         4.7806        18.9000 
      9245.5000         8.6970        43.1500      -999.2500       126.1901         2.3700         2.4853         0.0000         3.3936         3.6817         3.9325         4.2580        18.7200 
      9246.0000         8.6970        53.6000      -999.2500       127.6957         2.4100         2.4041         0.0100         3.0935         3.1319         3.3454         3.5508        19.5500 
      9246.5000         8.6970        60.6200      -999.2500       128.6230         2.4100         2.3716         0.0100         3.0042         2.9615         3.1416         3.2260        20.6500 
      9247.0000         8.6970        57.9500      -999.2500       129.7480         2.4400         2.3745         0.0100         2.9031         2.8803         3.0557         3.1411        20.8500 
      9247.5000         8.6970        49.2000      -999.2500       130.8804         2.4900         2.3537         0.0100         2.8314         2.8250         3.0861         3.2919        20.1100 
      9248.0000         8.6970        50.2600      -999.2500       131.3617         2.4800         2.3501        -0.0100         2.8857         2.8905         3.2332         3.5064        18.8900 
      9248.5000         8.6970        58.6000      -999.2500       131.2002         2.4700         2.3499         0.0000         2.9448         2.8500         3.2076         3.4616        18.2900 
      9249.0000         8.6970        56.0300      -999.2500       131.3047         2.4600         2.3495         0.0000         2.9545         2.7674         3.0386         3.1596        18.1700 
      9249.5000         8.6970        59.8500      -999.2500       131.5942         2.4300         2.3644         0.0000         3.1614         3.0019         3.0477         2.9813        19.0700 
      9250.0000         8.6970        61.2800      -999.2500       131.3993         2.4000         2.3824         0.0000         3.4510         3.2478         3.0585         2.9857        20.3000 
      9250.5000         8.6970        59.8100      -999.2500       130.6042         2.4000         2.3747         0.0100         4.1083         3.7419         3.2601         3.1815        20.4500 
      9251.0000         8.6970        63.2400      -999.2500       129.1849         2.4300         2.3744         0.0200         4.9577         4.3342         3.7071         3.5641        19.6400 
      9251.5000         8.6970        69.7200      -999.2500       127.0867         2.4600         2.3888         0.0100         5.7988         5.0564         4.4673         4.3841        18.0100 
      9252.0000         8.6970        69.9900      -999.2500       124.4865         2.5200         2.4433         0.0100         6.0515         5.6316         5.3189         5.4002        17.0600 
      9252.5000         8.6794        67.6100      -999.2500       123.0253         2.5400         2.4975         0.0100         5.9278         5.9734         6.0493         6.4259        16.2200 
      9253.0000         8.5827        61.0100      -999.2500       123.0989         2.5200         2.5187         0.0100         5.6988         5.8919         6.3769         7.0656        15.9900 
      9253.5000         8.6623        59.7200      -999.2500       123.8274         2.5000         2.5549         0.0200         5.6854         5.9403         6.6155         7.3519        15.7500 
      9254.0000         8.6970        65.0400      -999.2500       124.6577         2.4700         2.5733         0.0000         5.6009         5.8075         6.3272         6.8246        16.6900 
      9254.5000         8.6346        71.0300      -999.2500       125.6432         2.4800         2.4970         0.0000         5.5414         5.6426         5.9531         6.0786        17.4000 
      9255.0000         8.6091        76.7700      -999.2500       126.7636         2.4800         2.4738         0.0100         5.5891         5.5898         5.6889         5.6517        17.8200 
      9255.5000         8.6692        83.3500      -999.2500       127.8029         2.4800         2.4918         0.0000         5.7831         5.6340         5.4875         5.4528        17.8400 
      9256.0000         8.6963        84.3800      -999.2500       128.2099         2.4900         2.4887         0.0000         6.0961         5.7226         5.4604         5.4629        18.0200 
      9256.5000         8.6970        84.3300      -999.2500       128.7479         2.5000         2.4963         0.0100         6.4769         5.9520         5.6112         5.6205        18.2500 
      9257.0000         8.6970        86.4800      -999.2500       129.3502         2.5100         2.5176         0.0100         7.1168         6.5211         6.0622         6.1325        18.4800 
      9257.5000         8.6970        91.5200      -999.2500       130.0549         2.5000         2.5839         0.0000         7.1557         6.6732         6.5144         6.6984        18.2100 
      9258.0000         8.6970        96.5000      -999.2500       131.4212         2.5100         2.6154         0.0000         6.4432         6.0823         6.1722         6.5345        18.2400 
      9258.5000         8.6970       105.4800      -999.2500       132.7515         2.4900         2.5786         0.0000         5.8192         5.5953         5.7541         5.9957        17.8800 
      9259.0000         8.6970       106.2700      -999.2500       133.4574         2.4900         2.5102         0.0100         5.4634         5.2552         5.3379         5.3709        19.0200 
