~Version Information Block
VERS .                 2.00:  CWLS LOG ASCII STANDARD - VERSION 2.00
WRAP .                   NO:  One line per depth step
~Well Information Block
#MNEM.UNIT        Data Type   Information
#---------- ----------------  -----------
STRT .F                8542:  START DEPTH
STOP .F               10343:  STOP DEPTH
STEP .F                 0.5:  STEP
NULL .              -999.25:  NULL VALUE
COMP .     PETRO-CANADA UK LTD:  COMPANY
WELL .             12/25-4Y:  WELL
FLD  .               NUTMEG:  FIELD
LOC  .            NORTH SEA:  LOCATION
PROV .                 UKCS:  PROVINCE
SRVC .          HALLIBURTON:  SERVICE COMPANY
DATE .         SEP-OCT-2009:  LOG DATE
UWI  .               500044:  UNIQUE WELL ID
~Curve Information Block
#MNEM.UNIT         API CODE   Curve Description
#---------- ----------------  -----------------
DEPTH.F                    :  Depth Curve
ACCA .IN                   :  Edited Composite Caliper
CGRC .GAPI                 :  Edited Combined Gamma Ray
DTC  .US/F                 :  Edited BAT DTC - Compressional
DTRS .US/F                 :  Edited BAT Refracted Shear
HDBQ .G/CC                 :  Edited Density - Bottom Quad
HDTQ .G/CC                 :  Edited Density - Top Quad
HRBQ .G/CC                 :  Edited Delta Rho - Bot Quad
SEDP .OHMM                 :  Edited Deep Phase Resistivity
SEMP .OHMM                 :  Edited Medium Phase Resistivity
SESP .OHMM                 :  Edited Shallow Phase Resistivity
SEXP .OHMM                 :  Edited X-Shallow Phase Resistivity
TNPL .%                    :  Edited Thermal Neutron Porosity
~Parameter Information Block
#MNEM.UNIT            Value   Description
#---------- ----------------  -----------
SET  .             COMP_LWD:  
PROJ .            125TH_I_1:  
DATU .                  MSL:  
TDD  .F               10388:  
EKB  .F                  88:  
LATI .       58 16'56.460"N:  
LONG .       02 00'23.925"W:  
LMF  .                   RT:  
SURF .F                -301:  
~Other Information Block
~A        DEPTH           ACCA           CGRC            DTC           DTRS           HDBQ           HDTQ           HRBQ           SEDP           SEMP           SESP           SEXP           TNPL 
# ...
     10161.5000         8.9300       113.5300      -999.2500       130.0414         2.6500         2.6359         0.0100         6.3302         5.8738         5.8612         6.0975        17.4000 
     10162.0000         8.8268       110.6200      -999.2500       129.6820         2.6500         2.6137         0.0200         6.1654         5.6781         5.6321         5.7759        17.6700 
     10162.5000         8.8554       116.0100      -999.2500       129.5175         2.6500         2.6152         0.0100         6.1982         5.7703         5.6055         5.6596        18.2100 
     10163.0000         8.9157       136.1000      -999.2500       127.9458         2.6400         2.5989         0.0000         6.4376         5.9736         5.7552         5.7923        18.9800 
     10163.5000         8.9361       142.1100      -999.2500       125.3639         2.6400         2.6089         0.0000         6.6443         6.2112         6.0898         6.2274        19.1700 
     10164.0000         8.8863       134.9600      -999.2500       124.0658         2.6500         2.6096        -0.0100         6.8714         6.5447         6.5374         6.8611        18.3900 
     10164.5000         8.8475       117.1400      -999.2500       124.0693         2.6600         2.6295        -0.0100         6.8690         6.5516         6.5080         6.8288        17.5700 
     10165.0000         8.6583       113.8500      -999.2500       126.4032         2.6700         2.6465        -0.0100         6.8590         6.6877         6.8082         7.1787        17.2300 
     10165.5000         8.7028       109.2800      -999.2500       130.4160         2.6700         2.6620        -0.0100         6.9363         6.9419         7.1885         7.6546        17.6000 
     10166.0000         8.6901       107.8500      -999.2500       134.4900         2.6600         2.6594         0.0000         6.8933         7.0125         7.3401         7.9090        17.8200 
     10166.5000         8.7661       123.7800      -999.2500       135.9615         2.6500         2.6438        -0.0100         6.4840         6.6228         7.0346         7.6813        18.7100 
     10167.0000         8.7577       156.6000      -999.2500       133.5159         2.6200         2.6521        -0.0100         5.7937         5.7973         6.0795         6.4416        20.3100 
     10167.5000         8.7852       174.1100      -999.2500       130.1014         2.5900         2.6264         0.0000         5.1718         4.9388         4.9519         5.0321        21.9000 
     10168.0000         8.7881       177.3000      -999.2500       125.6937         2.5400         2.5886         0.0000         5.1811         4.8589         4.7783         4.7205        22.2700 
     10168.5000         8.7881       184.6200      -999.2500       120.8856         2.5200         2.5631         0.0100         5.1977         4.7177         4.5930         4.6134        21.5400 
     10169.0000         8.7830       175.5000      -999.2500       116.4399         2.5200         2.5334         0.0000         5.4008         4.9261         4.7060         4.7361        19.4900 
     10169.5000         8.7051       130.2900      -999.2500       111.5271         2.5300         2.5189        -0.0100         5.4946         5.0563         4.9219         5.0687        17.3000 
     10170.0000         8.6970       109.5700      -999.2500       107.2766         2.5400         2.5377         0.0000         5.9434         5.5044         5.6217         6.0879        17.0200 
     10170.5000         8.6970        79.2400      -999.2500       104.5023         2.5400         2.5469        -0.0100         6.4362         6.2437         6.4439         7.4092        16.8400 
     10171.0000         8.6941        48.1900      -999.2500       102.9058         2.5600         2.5407        -0.0100         6.5411         6.6681         7.2303         8.4304        16.8900 
     10171.5000         8.6458        33.3200      -999.2500       102.1196         2.5800         2.5433        -0.0100         6.8317         7.0175         7.9408         9.4018        16.5700 
     10172.0000         8.6059        29.2300      -999.2500       101.9463         2.6000         2.5552        -0.0100         7.1285         7.3580         8.3513        10.1654        16.0400 
     10172.5000         8.6059        28.1600      -999.2500       101.7382         2.5800         2.5772         0.0000         7.2881         7.6869         8.8445        10.8608        15.7000 
     10173.0000         8.6059        28.3800      -999.2500       101.6269         2.5900         2.5764         0.0200         7.4929         8.0403         9.2005        11.0602        15.6300 
     10173.5000         8.6059        27.6200      -999.2500       101.4570         2.6400         2.5884         0.0100         7.6199         8.2286         9.1910        11.0088        15.8600 
     10174.0000         8.6059        25.9700      -999.2500       100.5687         2.6600         2.6059         0.0100         7.7201         8.4171         9.3385        11.1235        16.7400 
     10174.5000         8.6059        24.9200        51.9386        99.6150         2.6700         2.6268         0.0100         7.8359         8.3273         9.2939        11.2644        16.6900 
     10175.0000         8.6089        25.5600        51.7026        98.7401         2.6700         2.6271         0.0100         7.7750         8.1001         9.1845        11.2723        17.1400 
     10175.5000         8.6732        20.9100        52.3105        97.9398         2.6700         2.6230         0.0100         7.4750         7.9028         8.9808        11.1045        17.3800 
     10176.0000         8.6970        18.3900        52.3105        98.0181         2.6700         2.6529         0.0100         7.2360         7.6860         8.7674        10.9421        17.5100 
     10176.5000         8.6966        15.7400        53.0537        97.8517         2.6400         2.6615         0.0000         6.8313         7.1348         8.3180        10.5765        17.4400 
     10177.0000         8.6692        14.4900        54.3583        98.0391         2.6200         2.6757         0.0000         6.1354         6.3314         7.4210         9.5382        17.6900 
     10177.5000         8.6485        16.0200        54.7370        99.0174         2.6300         2.6648         0.0000         5.4604         5.5852         6.5468         8.1625        18.3100 
     10178.0000         8.6884        14.9900        54.9965       101.4144         2.6200         2.6282         0.0100         4.9331         4.9956         5.7105         6.7733        19.3600 
     10178.5000         8.6970        15.4300        54.6665       104.0380         2.6200         2.6110         0.0100         4.6101         4.7106         5.2535         6.0072        20.3800 
     10179.0000         8.6970        15.2700        54.6489       105.7031         2.5800         2.5962        -0.0100         4.1697         4.3007         4.6323         5.1427        20.8000 
     10179.5000         8.6970        15.5700        54.9472       106.5462         2.5700         2.5771        -0.0100         3.6600         3.7200         3.8833         4.3249        21.3800 
     10180.0000         8.6970        14.6700        55.9777       106.5399         2.5700         2.5713         0.0000         3.3161         3.2367         3.3826         3.7746        21.8100 
     10180.5000         8.6970        15.5500        55.7660       106.5208         2.5600         2.5543         0.0100         3.1287         2.9495         3.0281         3.4012        22.2400 
     10181.0000         8.6970        14.8800        55.6296       106.0335         2.5600         2.5663         0.0000         2.9829         2.7631         2.8602         3.2282        22.1300 
     10181.5000         8.6970        14.7500      -999.2500       105.4305         2.5700         2.5674         0.0000         3.1255         2.8876         2.9665         3.3301        21.9300 
