~Version Information Block
VERS .                 2.00:  CWLS LOG ASCII STANDARD - VERSION 2.00
WRAP .                   NO:  One line per depth step
~Well Information Block
#MNEM.UNIT        Data Type   Information
#---------- ----------------  -----------
STRT .F                8542:  START DEPTH
STOP .F               10343:  STOP DEPTH
STEP .F                 0.5:  STEP
NULL .              -999.25:  NULL VALUE
COMP .     PETRO-CANADA UK LTD:  COMPANY
WELL .             12/25-4Y:  WELL
FLD  .               NUTMEG:  FIELD
LOC  .            NORTH SEA:  LOCATION
PROV .                 UKCS:  PROVINCE
SRVC .          HALLIBURTON:  SERVICE COMPANY
DATE .         SEP-OCT-2009:  LOG DATE
UWI  .               500044:  UNIQUE WELL ID
~Curve Information Block
#MNEM.UNIT         API CODE   Curve Description
#---------- ----------------  -----------------
DEPTH.F                    :  Depth Curve
ACCA .IN                   :  Edited Composite Caliper
CGRC .GAPI                 :  Edited Combined Gamma Ray
DTC  .US/F                 :  Edited BAT DTC - Compressional
DTRS .US/F                 :  Edited BAT Refracted Shear
HDBQ .G/CC                 :  Edited Density - Bottom Quad
HDTQ .G/CC                 :  Edited Density - Top Quad
HRBQ .G/CC                 :  Edited Delta Rho - Bot Quad
SEDP .OHMM                 :  Edited Deep Phase Resistivity
SEMP .OHMM                 :  Edited Medium Phase Resistivity
SESP .OHMM                 :  Edited Shallow Phase Resistivity
SEXP .OHMM                 :  Edited X-Shallow Phase Resistivity
TNPL .%                    :  Edited Thermal Neutron Porosity
~Parameter Information Block
#MNEM.UNIT            Value   Description
#---------- ----------------  -----------
SET  .             COMP_LWD:  
PROJ .            125TH_I_1:  
DATU .                  MSL:  
TDD  .F               10388:  
EKB  .F                  88:  
LATI .       58 16'56.460"N:  
LONG .       02 00'23.925"W:  
LMF  .                   RT:  
SURF .F                -301:  
~Other Information Block
~A        DEPTH           ACCA           CGRC            DTC           DTRS           HDBQ           HDTQ           HRBQ           SEDP           SEMP           SESP           SEXP           TNPL 
      8542.0000         8.6663       134.6000      -999.2500       163.0774         2.4600         2.3292         0.0100         9.3299         8.7207         8.8848         9.5336        29.3600 
      8542.5000         8.6393       108.3500      -999.2500       161.0186         2.4700         2.3562         0.0000         9.8727         9.1814         9.7297        10.7030        29.9600 
      8543.0000         8.6865        96.9100      -999.2500       158.8345         2.4500         2.3712         0.0100         9.7856         9.1506         9.8549        10.8082        29.0300 
      8543.5000         8.6969        99.3500      -999.2500       156.5365         2.4300         2.3653         0.0100         9.9324         9.3774         9.9091        10.5243        26.6300 
      8544.0000         8.6644       103.7400      -999.2500       153.5570         2.4900         2.3646         0.0300        10.0966         9.5893         9.8219        10.0932        26.1600 
      8544.5000         8.6545       104.6200      -999.2500       150.3938         2.5100         2.3937         0.0200         9.9547         9.5613         9.3673         9.3668        28.0400 
      8545.0000         8.6963       131.2200      -999.2500       145.4664         2.5200         2.4563         0.0100        10.8144        10.1030         9.6217         9.3805        27.7500 
      8545.5000         8.6945       136.9100      -999.2500       141.7591         2.5100         2.4805         0.0000        11.8716        11.0728        10.4166        10.5348        24.1300 
      8546.0000         8.6469       123.6100      -999.2500       141.2390         2.4800         2.4940         0.0100        11.8497        10.8027        10.4096        10.9284        19.8300 
      8546.5000         8.6185       113.3300      -999.2500       143.2651         2.4600         2.4941         0.0200        11.8413        10.6906        10.5914        11.0927        18.3000 
      8547.0000         8.6793       110.8500      -999.2500       144.6881         2.4600         2.4634         0.0200        11.7827        10.7076        10.6796        11.2949        19.1700 
      8547.5000         8.6965       104.1200      -999.2500       143.9399         2.4700         2.4289         0.0100        11.5713        10.5167        10.4932        11.0940        21.2500 
      8548.0000         8.6970       110.3600      -999.2500       141.9916         2.5000         2.4640         0.0100        11.2218        10.1698        10.0478        10.6596        22.6000 
      8548.5000         8.6814       110.1700      -999.2500       139.4214         2.4700         2.4584         0.0100        11.4677        10.3648        10.1519        10.6552        24.0900 
      8549.0000         8.6179       118.4400      -999.2500       136.9429         2.4900         2.4475         0.0100        11.0963        10.4116        10.4238        11.1248        21.1700 
      8549.5000         8.6064       100.8600      -999.2500       135.4195         2.5200         2.5010         0.0200         9.9428         9.4626         9.7972        10.8655        20.2400 
      8550.0000         8.6059        99.7700      -999.2500       135.7450         2.4900         2.5147         0.0100         8.9703         8.6389         9.1174        10.4940        20.8800 
      8550.5000         8.6059       111.0400      -999.2500       136.1552         2.4700         2.5009         0.0100         8.3154         7.8608         8.5972         9.9321        20.8100 
      8551.0000         8.6256       113.3700      -999.2500       136.2559         2.5000         2.4914         0.0200         8.3342         7.9180         8.4262         9.4304        20.1100 
      8551.5000         8.6614        99.6700      -999.2500       136.3114         2.5000         2.4886         0.0300         7.2937         7.0238         7.3702         8.2363        20.0100 
      8552.0000         8.6129        95.9000      -999.2500       136.0573         2.4900         2.4768         0.0200         6.4687         6.1305         6.3385         6.9503        19.3500 
      8552.5000         8.6389       102.2200      -999.2500       136.4650         2.5000         2.4801         0.0200         5.8990         5.5038         5.6987         6.1322        18.5300 
      8553.0000         8.6213        86.6900      -999.2500       137.5538         2.5100         2.4692         0.0100         5.6224         5.2641         5.4271         5.7863        18.9400 
      8553.5000         8.6300        64.9500      -999.2500       139.1422         2.5200         2.4562         0.0100         5.5701         5.2236         5.2021         5.5934        19.0200 
      8554.0000         8.6698        54.8600      -999.2500       138.8197         2.5000         2.4587         0.0200         5.4757         5.2671         5.0535         5.4673        18.8900 
      8554.5000         8.6819        49.1800      -999.2500       137.5915         2.4500         2.4523         0.0200         5.3074         5.0418         4.8540         5.3547        18.7500 
      8555.0000         8.6125        48.4300      -999.2500       135.7748         2.4100         2.4494         0.0300         5.0473         4.7038         4.6638         5.2452        19.3500 
      8555.5000         8.6060        46.6500      -999.2500       134.2165         2.3800         2.4027         0.0100         5.0219         4.6597         4.5990         5.1517        19.8500 
      8556.0000         8.6059        42.8200      -999.2500       133.0879         2.3600         2.3806         0.0100         5.0359         4.7897         4.6036         5.0771        17.8900 
      8556.5000         8.6059        43.0000      -999.2500       132.5113         2.3700         2.3887         0.0100         4.7555         4.6897         4.4869         4.9219        16.7200 
      8557.0000         8.6059        51.0300      -999.2500       132.1451         2.3700         2.3853         0.0000         4.2827         4.2180         4.1516         4.5041        16.1600 
      8557.5000         8.6059        47.5900      -999.2500       131.5282         2.3800         2.3748         0.0000         4.1292         4.0308         4.0257         4.2618        16.1100 
      8558.0000         8.6059        51.8600      -999.2500       131.9198         2.3800         2.3708         0.0000         4.2887         4.1591         4.1673         4.3346        16.0200 
      8558.5000         8.6059        51.0100      -999.2500       132.9101         2.3800         2.3800         0.0100         4.6354         4.5499         4.5551         4.7419        16.2400 
      8559.0000         8.6059        49.6400      -999.2500       133.8460         2.3700         2.3784         0.0000         5.5484         5.6502         5.7585         6.1705        16.9800 
      8559.5000         8.6059        59.6800      -999.2500       134.0280         2.3600         2.3629        -0.0100         6.8705         7.2593         7.7509         8.8066        17.0000 
      8560.0000         8.6059        59.1600      -999.2500       133.3362         2.3500         2.3751        -0.0100         8.2356         9.0101         9.9655        12.0617        17.2500 
      8560.5000         8.6059        50.6800      -999.2500       130.9120         2.3300         2.3569        -0.0100         9.1240        10.3546        11.6541        14.3866        17.4700 
      8561.0000         8.6070        52.1800      -999.2500       126.6650         2.3400         2.3534         0.0000        10.2052        11.9048        13.1706        15.5475        16.7100 
      8561.5000         8.6320        48.8500      -999.2500       121.5869         2.3700         2.3447         0.0000        11.2710        13.4553        14.7151        16.3605        15.3600 
      8562.0000         8.6950        51.1200      -999.2500       117.9114         2.4500         2.3792         0.0000        13.4241        16.6762        16.6665        17.5756        14.0200 
