~Version Information Block
VERS .                 2.00:  CWLS LOG ASCII STANDARD - VERSION 2.00
WRAP .                   NO:  One line per depth step
~Well Information Block
#MNEM.UNIT        Data Type   Information
#---------- ----------------  -----------
STRT .F                8542:  START DEPTH
STOP .F               10343:  STOP DEPTH
STEP .F                 0.5:  STEP
NULL .              -999.25:  NULL VALUE
COMP .     PETRO-CANADA UK LTD:  COMPANY
WELL .             12/25-4Y:  WELL
FLD  .               NUTMEG:  FIELD
LOC  .            NORTH SEA:  LOCATION
PROV .                 UKCS:  PROVINCE
SRVC .          HALLIBURTON:  SERVICE COMPANY
DATE .         SEP-OCT-2009:  LOG DATE
UWI  .               500044:  UNIQUE WELL ID
~Curve Information Block
#MNEM.UNIT         API CODE   Curve Description
#---------- ----------------  -----------------
DEPTH.F                    :  Depth Curve
ACCA .IN                   :  Edited Composite Caliper
CGRC .GAPI                 :  Edited Combined Gamma Ray
DTC  .US/F                 :  Edited BAT DTC - Compressional
DTRS .US/F                 :  Edited BAT Refracted Shear
HDBQ .G/CC                 :  Edited Density - Bottom Quad
HDTQ .G/CC                 :  Edited Density - Top Quad
HRBQ .G/CC                 :  Edited Delta Rho - Bot Quad
SEDP .OHMM                 :  Edited Deep Phase Resistivity
SEMP .OHMM                 :  Edited Medium Phase Resistivity
SESP .OHMM                 :  Edited Shallow Phase Resistivity
SEXP .OHMM                 :  Edited X-Shallow Phase Resistivity
TNPL .%                    :  Edited Thermal Neutron Porosity
~Parameter Information Block
#MNEM.UNIT            Value   Description
#---------- ----------------  -----------
SET  .             COMP_LWD:  
PROJ .            125TH_I_1:  
DATU .                  MSL:  
TDD  .F               10388:  
EKB  .F                  88:  
LATI .       58 16'56.460"N:  
LONG .       02 00'23.925"W:  
LMF  .                   RT:  
SURF .F                -301:  
~Other Information Block
~A        DEPTH           ACCA           CGRC            DTC           DTRS           HDBQ           HDTQ           HRBQ           SEDP           SEMP           SESP           SEXP           TNPL 
# ...
      9936.0000         8.6979       125.3200        69.2810       154.9932         2.6000         2.5932         0.0100         3.5674         3.3213         3.3096         3.3495        23.8300 
      9936.5000         8.7084       123.3200        69.7637       154.5811         2.6000         2.6025         0.0200         3.5973         3.3745         3.3608         3.4061        22.9900 
      9937.0000         8.7595       116.7700        70.1488       154.3444         2.6000         2.5872         0.0100         3.6425         3.4592         3.4488         3.5291        22.2500 
      9937.5000         8.7195       114.4300        69.4884       154.2751         2.6000         2.5962         0.0100         3.6839         3.5324         3.5650         3.6677        21.9700 
      9938.0000         8.7342       111.7800        70.4826       154.5242         2.6000         2.5702         0.0000         3.6642         3.5248         3.5773         3.7063        21.4500 
      9938.5000         8.7007       115.8000        70.4958       154.7934         2.5800         2.5842         0.0000         3.6139         3.4822         3.5385         3.6576        21.6100 
      9939.0000         8.6970       115.2300        70.7834       155.4194         2.6000         2.5745         0.0100         3.6109         3.5038         3.5610         3.6474        22.0100 
      9939.5000         8.6970       120.3200        71.9001       156.2905         2.6100         2.5854         0.0100         3.6457         3.5699         3.5916         3.6423        22.3900 
      9940.0000         8.6970       112.2100        72.7387       156.9266         2.6100         2.5709         0.0100         3.6408         3.5520         3.5677         3.6462        22.6100 
      9940.5000         8.6995       112.3700        72.7515       157.1251         2.6100         2.5694         0.0100         3.6141         3.5253         3.5352         3.6348        23.4300 
      9941.0000         8.7243       114.7400        71.8010       157.5127         2.6000         2.5752         0.0000         3.5373         3.4132         3.4453         3.5327        24.1200 
      9941.5000         8.7081       121.2200        72.3033       157.5014         2.6000         2.5831         0.0000         3.4951         3.3534         3.3848         3.4599        24.4300 
      9942.0000         8.6970       120.1600        73.3462       157.1681         2.6000         2.5891         0.0000         3.4940         3.3276         3.3543         3.4104        23.9800 
      9942.5000         8.6970       117.0300        73.3287       156.1694         2.5800         2.5748        -0.0100         3.5242         3.3466         3.3464         3.4024        23.3900 
      9943.0000         8.6970       118.8000        72.2844       155.2075         2.5700         2.5986        -0.0100         3.6018         3.4169         3.4068         3.4662        23.4200 
      9943.5000         8.6970       120.0200        71.6461       154.5908         2.5900         2.5896         0.0000         3.5739         3.3986         3.3917         3.4643        23.1300 
      9944.0000         8.6970       117.9800        70.7698       154.3839         2.5800         2.5942         0.0000         3.5167         3.3219         3.3344         3.4084        22.5100 
      9944.5000         8.6970       123.9900        69.9571       154.1786         2.5700         2.5877        -0.0100         3.6169         3.4150         3.4055         3.4471        21.8400 
      9945.0000         8.6970       122.8900        69.8108       154.0917         2.5600         2.5716        -0.0200         3.8010         3.6487         3.6274         3.6796        21.3300 
      9945.5000         8.6970       122.1400        70.4618       154.0214         2.5800         2.5583        -0.0100         3.8958         3.7956         3.8093         3.9585        21.5200 
      9946.0000         8.6970       119.5000        71.6961       153.8181         2.5900         2.5717         0.0000         3.6899         3.5854         3.6991         3.9326        22.3400 
      9946.5000         8.6970       126.5700        72.4462       153.6701         2.5800         2.5683         0.0000         3.6360         3.5060         3.6310         3.8116        23.2200 
      9947.0000         8.6970       126.3600        73.1663       153.5271         2.5800         2.5783        -0.0100         3.6622         3.5343         3.6065         3.6735        22.7700 
      9947.5000         8.6970       109.2300        73.3962       153.3571         2.5900         2.5977         0.0000         3.7171         3.5873         3.5832         3.6288        22.4100 
      9948.0000         8.6970       111.1100        72.3496       153.4254         2.6100         2.5791         0.0000         3.8110         3.6498         3.6020         3.6532        21.4800 
      9948.5000         8.6970       115.0100        71.3869       153.6411         2.5900         2.5752         0.0000         3.8729         3.6955         3.6522         3.7248        21.5600 
      9949.0000         8.7029       114.1200        70.9421       153.8527         2.6100         2.5864         0.0000         3.9484         3.7973         3.7862         3.8933        21.5100 
      9949.5000         8.7411       118.8900        70.9480       153.8946         2.6200         2.5802         0.0100         3.8713         3.7174         3.8063         3.9816        22.6000 
      9950.0000         8.7851       119.6900        70.4420       153.9549         2.6000         2.5932         0.0000         3.7835         3.6381         3.7376         3.8703        23.2900 
      9950.5000         8.7870       123.4100        69.5181       153.9767         2.5900         2.5905         0.0000         3.7958         3.6369         3.7096         3.8056        23.0600 
      9951.0000         8.7589       123.5100        70.5552       153.8822         2.6000         2.5932         0.0100         3.7679         3.5973         3.6174         3.6818        22.7800 
      9951.5000         8.7272       124.4400        71.1422       153.8933         2.6000         2.5802         0.0100         3.7857         3.6090         3.5943         3.6578        23.0900 
      9952.0000         8.7634       117.1700        71.7609       153.9663         2.5900         2.5729         0.0100         3.9363         3.7439         3.7140         3.7786        22.4500 
      9952.5000         8.7448       116.3800        71.3435       153.9962         2.6000         2.5793         0.0100         4.0237         3.8593         3.8374         3.9419        22.9300 
      9953.0000         8.7881       119.8800        71.2455       154.0438         2.6200         2.6092         0.0100         4.0083         3.8548         3.8764         4.0137        22.5700 
      9953.5000         8.7793       120.7700        71.4969       154.1181         2.6300         2.6084         0.0100         4.0132         3.8527         3.9264         4.0601        22.5100 
      9954.0000         8.7337       121.8300        71.3662       154.2148         2.6000         2.5879         0.0000         3.9719         3.7994         3.8935         4.0064        23.0300 
      9954.5000         8.7067       120.0700        71.4269       154.3648         2.5800         2.5960        -0.0100         3.9522         3.7724         3.8375         3.9322        23.3900 
      9955.0000         8.7364       118.9700        70.8118       153.8394         2.5800         2.5875         0.0000         3.9918         3.8097         3.8449         3.9081        23.5700 
      9955.5000         8.7826       121.8200        70.6339       153.3439         2.6100         2.5975         0.0000         3.9802         3.7494         3.7509         3.8549        23.2700 
      9956.0000         8.7881       124.7300        70.7534       152.8644         2.6200         2.5963         0.0000         4.0911         3.8027         3.7767         3.8604        23.0300 
