~Version Information Block
VERS .                 2.00:  CWLS LOG ASCII STANDARD - VERSION 2.00
WRAP .                   NO:  One line per depth step
~Well Information Block
#MNEM.UNIT        Data Type   Information
#---------- ----------------  -----------
STRT .F                8542:  START DEPTH
STOP .F               10343:  STOP DEPTH
STEP .F                 0.5:  STEP
NULL .              -999.25:  NULL VALUE
COMP .     PETRO-CANADA UK LTD:  COMPANY
WELL .             12/25-4Y:  WELL
FLD  .               NUTMEG:  FIELD
LOC  .            NORTH SEA:  LOCATION
PROV .                 UKCS:  PROVINCE
SRVC .          HALLIBURTON:  SERVICE COMPANY
DATE .         SEP-OCT-2009:  LOG DATE
UWI  .               500044:  UNIQUE WELL ID
~Curve Information Block
#MNEM.UNIT         API CODE   Curve Description
#---------- ----------------  -----------------
DEPTH.F                    :  Depth Curve
ACCA .IN                   :  Edited Composite Caliper
CGRC .GAPI                 :  Edited Combined Gamma Ray
DTC  .US/F                 :  Edited BAT DTC - Compressional
DTRS .US/F                 :  Edited BAT Refracted Shear
HDBQ .G/CC                 :  Edited Density - Bottom Quad
HDTQ .G/CC                 :  Edited Density - Top Quad
HRBQ .G/CC                 :  Edited Delta Rho - Bot Quad
SEDP .OHMM                 :  Edited Deep Phase Resistivity
SEMP .OHMM                 :  Edited Medium Phase Resistivity
SESP .OHMM                 :  Edited Shallow Phase Resistivity
SEXP .OHMM                 :  Edited X-Shallow Phase Resistivity
TNPL .%                    :  Edited Thermal Neutron Porosity
~Parameter Information Block
#MNEM.UNIT            Value   Description
#---------- ----------------  -----------
SET  .             COMP_LWD:  
PROJ .            125TH_I_1:  
DATU .                  MSL:  
TDD  .F               10388:  
EKB  .F                  88:  
LATI .       58 16'56.460"N:  
LONG .       02 00'23.925"W:  
LMF  .                   RT:  
SURF .F                -301:  
~Other Information Block
~A        DEPTH           ACCA           CGRC            DTC           DTRS           HDBQ           HDTQ           HRBQ           SEDP           SEMP           SESP           SEXP           TNPL 
# ...
      9813.0000         8.7565       117.1000        74.7774       157.0574         2.5600         2.5586         0.0000         3.3594         3.2178         3.2218         3.2858        22.7500 
      9813.5000         8.7560       121.5500        73.3280       156.7613         2.5700         2.5424         0.0000         3.3529         3.2069         3.2158         3.2924        22.4400 
      9814.0000         8.7862       125.3500        71.9593       157.2940         2.5600         2.5610         0.0000         3.3424         3.1979         3.2018         3.2659        22.1600 
      9814.5000         8.7595       123.5300        70.9370       157.9341         2.5800         2.5617         0.0000         3.3360         3.1986         3.1964         3.2684        21.7600 
      9815.0000         8.7017       126.7500        72.1557       158.0112         2.5800         2.5597         0.0000         3.3274         3.1983         3.1967         3.2713        21.8300 
      9815.5000         8.6970       138.0900        73.4871       158.2999         2.5700         2.5637        -0.0100         3.3374         3.1971         3.1943         3.2649        22.4500 
      9816.0000         8.6970       132.8000        72.5594       158.3447         2.6000         2.5672         0.0100         3.3298         3.1849         3.1958         3.2606        22.5200 
      9816.5000         8.6970       132.8400        71.5819       158.6246         2.5900         2.5765         0.0000         3.3177         3.1825         3.1780         3.2594        22.5100 
      9817.0000         8.6970       127.2700        71.1736       158.4623         2.5500         2.5725        -0.0100         3.3481         3.2141         3.2006         3.2790        22.4000 
      9817.5000         8.6970       132.0700        71.8047       157.8542         2.5700         2.5703        -0.0100         3.3686         3.2621         3.2636         3.3375        22.8000 
      9818.0000         8.6970       123.3200        74.4085       157.5411         2.5800         2.5758         0.0000         3.3833         3.2776         3.2806         3.3796        22.8400 
      9818.5000         8.6970       126.5700        75.5923       157.5841         2.5800         2.5723         0.0000         3.3639         3.2458         3.2754         3.3870        22.1500 
      9819.0000         8.6970       122.5200        76.5905       157.7746         2.5900         2.5528         0.0100         3.3364         3.2154         3.2581         3.3706        22.1800 
      9819.5000         8.6970       133.3000        77.9006       158.1594         2.5700         2.5676         0.0000         3.3062         3.2057         3.2455         3.3348        21.7100 
      9820.0000         8.6970       123.3500        76.5504       158.6314         2.5800         2.5705         0.0100         3.3128         3.1878         3.2243         3.2844        21.4800 
      9820.5000         8.6970       132.9900        75.7965       158.3595         2.5700         2.5864         0.0000         3.2809         3.1443         3.1634         3.2252        21.9300 
      9821.0000         8.6970       128.9600        73.4193       157.9282         2.5800         2.5977         0.0000         3.3312         3.1773         3.1788         3.2550        22.9900 
      9821.5000         8.6970       130.8100        72.8424       157.8197         2.5600         2.6291         0.0000         3.4162         3.2744         3.2523         3.3181        23.1800 
      9822.0000         8.6970       115.5000        72.7197       157.5680         2.5600         2.6481         0.0100         3.4396         3.3124         3.3143         3.3856        22.4400 
      9822.5000         8.6970       123.2000        72.6036       157.6647         2.5700         2.5976         0.0100         3.4518         3.3176         3.3459         3.4578        22.5300 
      9823.0000         8.6992       120.9100        74.3580       157.6629         2.5500         2.5955        -0.0100         3.3964         3.2556         3.3108         3.4304        22.2300 
      9823.5000         8.7110       118.9300        74.3791       157.8971         2.5800         2.5850         0.0000         3.3223         3.2011         3.2415         3.3349        22.0500 
      9824.0000         8.6970       122.2500        71.8172       158.1516         2.5900         2.5839        -0.0100         3.3586         3.2507         3.2619         3.3238        22.1100 
      9824.5000         8.6970       120.6200        71.8000       158.5664         2.5800         2.5890         0.0000         3.3849         3.2809         3.2913         3.3283        22.1800 
      9825.0000         8.6970       123.9200        71.7911       158.3491         2.5700         2.5812        -0.0100         3.4036         3.3001         3.2838         3.3637        22.8400 
      9825.5000         8.6970       120.8100        71.2434       158.0087         2.5700         2.5861         0.0000         3.4245         3.3113         3.3050         3.3892        22.8800 
      9826.0000         8.6972       118.9600        73.2928       157.8243         2.5800         2.6018         0.0000         3.4272         3.3179         3.3324         3.4265        22.1100 
      9826.5000         8.7130       124.7200        74.3894       157.5964         2.5800         2.5897         0.0000         3.3836         3.2831         3.3180         3.4222        21.8000 
      9827.0000         8.7349       132.2500        75.3393       157.8536         2.5800         2.6234         0.0000         3.3047         3.2045         3.2481         3.3517        21.4500 
      9827.5000         8.7039       124.3100        75.5169       157.3424         2.5800         2.6413        -0.0100         3.2418         3.1223         3.1603         3.2379        21.2700 
      9828.0000         8.6970       131.0600        74.0424       157.5296         2.6000         2.6395         0.0000         3.2309         3.1033         3.1276         3.1919        21.3000 
      9828.5000         8.6970       131.0500        73.4936       157.9899         2.5800         2.5748         0.0000         3.2506         3.1161         3.1207         3.1567        21.3400 
      9829.0000         8.6970       130.7800        73.1633       158.0212         2.6100         2.5626         0.0100         3.2462         3.1168         3.1085         3.1578        22.8500 
      9829.5000         8.6970       127.2200        72.1438       157.4454         2.5900         2.5651         0.0100         3.2665         3.1205         3.1067         3.1578        23.5700 
      9830.0000         8.6970       140.0900        72.0658       156.7766         2.5800         2.5539         0.0000         3.2983         3.1396         3.1346         3.1929        23.1300 
      9830.5000         8.6970       141.1800        72.0949       155.9946         2.5700         2.5548        -0.0100         3.3334         3.2145         3.2248         3.3022        22.9800 
      9831.0000         8.6970       129.0300        69.4561       155.1945         2.5700         2.5829         0.0000         3.3637         3.2737         3.2877         3.3880        22.5500 
      9831.5000         8.6970       125.7500        70.2726       154.9676         2.5900         2.5721         0.0100         3.3731         3.2876         3.3154         3.4354        22.7500 
      9832.0000         8.6970       132.2800        72.9223       155.3107         2.6000         2.5756         0.0100         3.3354         3.2264         3.2841         3.3831        22.1800 
      9832.5000         8.6970       127.0700        74.7371       155.7275         2.5900         2.6133         0.0000         3.3424         3.2287         3.2755         3.3678        21.7100 
      9833.0000         8.6970       136.8700        75.2106       156.2127         2.6000         2.6120         0.0000         3.3792         3.2885         3.3156         3.3821        21.7100 
