~Version Information Block
VERS .                 2.00:  CWLS LOG ASCII STANDARD - VERSION 2.00
WRAP .                   NO:  One line per depth step
~Well Information Block
#MNEM.UNIT        Data Type   Information
#---------- ----------------  -----------
STRT .F                8542:  START DEPTH
STOP .F               10343:  STOP DEPTH
STEP .F                 0.5:  STEP
NULL .              -999.25:  NULL VALUE
COMP .     PETRO-CANADA UK LTD:  COMPANY
WELL .             12/25-4Y:  WELL
FLD  .               NUTMEG:  FIELD
LOC  .            NORTH SEA:  LOCATION
PROV .                 UKCS:  PROVINCE
SRVC .          HALLIBURTON:  SERVICE COMPANY
DATE .         SEP-OCT-2009:  LOG DATE
UWI  .               500044:  UNIQUE WELL ID
~Curve Information Block
#MNEM.UNIT         API CODE   Curve Description
#---------- ----------------  -----------------
DEPTH.F                    :  Depth Curve
ACCA .IN                   :  Edited Composite Caliper
CGRC .GAPI                 :  Edited Combined Gamma Ray
DTC  .US/F                 :  Edited BAT DTC - Compressional
DTRS .US/F                 :  Edited BAT Refracted Shear
HDBQ .G/CC                 :  Edited Density - Bottom Quad
HDTQ .G/CC                 :  Edited Density - Top Quad
HRBQ .G/CC                 :  Edited Delta Rho - Bot Quad
SEDP .OHMM                 :  Edited Deep Phase Resistivity
SEMP .OHMM                 :  Edited Medium Phase Resistivity
SESP .OHMM                 :  Edited Shallow Phase Resistivity
SEXP .OHMM                 :  Edited X-Shallow Phase Resistivity
TNPL .%                    :  Edited Thermal Neutron Porosity
~Parameter Information Block
#MNEM.UNIT            Value   Description
#---------- ----------------  -----------
SET  .             COMP_LWD:  
PROJ .            125TH_I_1:  
DATU .                  MSL:  
TDD  .F               10388:  
EKB  .F                  88:  
LATI .       58 16'56.460"N:  
LONG .       02 00'23.925"W:  
LMF  .                   RT:  
SURF .F                -301:  
~Other Information Block
~A        DEPTH           ACCA           CGRC            DTC           DTRS           HDBQ           HDTQ           HRBQ           SEDP           SEMP           SESP           SEXP           TNPL 
# ...
      9362.0000         8.6970        61.1000        75.2707       153.3666         2.4100         2.4143        -0.0100         2.4390         2.3696         2.2881         2.2849        17.1800 
      9362.5000         8.6970        59.0200        76.6152       153.7444         2.4600         2.4272        -0.0100         2.5039         2.5928         2.5142         2.5593        17.0600 
      9363.0000         8.6970        65.4300        77.9664       154.6354         2.4800         2.4451         0.0000         2.2933         2.3414         2.3442         2.5447        16.4800 
      9363.5000         8.6970        68.2200        78.3250       156.2202         2.4100         2.4595        -0.0100         2.0038         1.9725         2.0624         2.2987        17.4300 
      9364.0000         8.6970        64.0500        79.4797       157.1505         2.3900         2.4060        -0.0100         1.8811         1.8031         1.9345         2.0800        18.5800 
      9364.5000         8.6970        58.7900        79.4784       157.1096         2.3900         2.3846        -0.0100         1.8578         1.7697         1.8883         1.9726        19.0300 
      9365.0000         8.6970        57.6000        78.7331       156.7526         2.4000         2.4181        -0.0100         1.9799         1.8871         1.8904         1.8905        18.5500 
      9365.5000         8.6970        59.9500        79.0431       155.5859         2.4000         2.4207        -0.0100         2.1793         2.1383         2.0745         2.0820        17.8900 
      9366.0000         8.6970        51.2500        78.0993       153.8743         2.4100         2.3990        -0.0100         2.1053         2.0833         2.1062         2.1996        17.0800 
      9366.5000         8.6970        55.7100        76.0930       153.1076         2.4300         2.4008        -0.0100         1.9385         1.8329         1.9048         1.9966        17.2200 
      9367.0000         8.6970        59.0000        75.4839       151.8511         2.4200         2.4101        -0.0100         2.0897         1.9408         1.9754         1.9829        17.9500 
      9367.5000         8.6970        61.0100        75.7946       150.0626         2.4000         2.4238        -0.0100         2.2978         2.1152         2.0880         2.0451        17.8900 
      9368.0000         8.6970        65.3300        75.6625       150.1970         2.4200         2.4575        -0.0100         2.4670         2.2978         2.1727         2.1293        16.9200 
      9368.5000         8.7103        67.2000        77.3377       151.4071         2.4300         2.4474        -0.0100         2.8775         2.7482         2.5613         2.5434        16.6600 
      9369.0000         8.7126        66.0000        79.3263       153.5773         2.4700         2.4440         0.0000         3.1936         3.2963         3.1729         3.2496        15.5500 
      9369.5000         8.6970        63.4700        79.4596       156.3218         2.5100         2.4941         0.0100         3.0467         3.2191         3.2096         3.4136        15.3400 
      9370.0000         8.6970        67.6600        79.3690       158.2767         2.4300         2.4733        -0.0100         2.5746         2.7133         2.8156         3.0566        17.0000 
      9370.5000         8.6970        71.8500        80.0959       157.4337         2.4200         2.4293         0.0000         2.2365         2.3388         2.4933         2.5421        17.6500 
      9371.0000         8.6970        67.1700        79.7822       155.0306         2.4100         2.4097         0.0000         2.0652         2.1115         2.1773         2.1072        18.4800 
      9371.5000         8.6970        63.5800        79.7785       153.4505         2.4100         2.4048         0.0000         1.9971         1.9833         1.9435         1.8651        19.4400 
      9372.0000         8.6970        59.8100        81.5765       152.4654         2.4100         2.4216         0.0000         2.0499         1.9198         1.8346         1.7702        19.7000 
      9372.5000         8.6970        59.6100        82.2670       151.6024         2.3900         2.4232        -0.0100         2.1764         1.9281         1.8276         1.7953        19.2000 
      9373.0000         8.6970        65.8500        82.3263       151.2776         2.4200         2.4142        -0.0100         2.3685         2.0979         1.9775         1.9680        17.6900 
      9373.5000         8.6970        66.0300        82.4568       151.5750         2.4400         2.4336        -0.0100         2.7489         2.4407         2.2797         2.2889        15.7900 
      9374.0000         8.6970        67.2300        83.0489       152.2512         2.4600         2.4698         0.0000         2.7757         2.7359         2.6746         2.7538        15.5100 
      9374.5000         8.6970        71.2200        84.0382       152.7309         2.5000         2.4802         0.0000         2.7963         2.8215         2.8694         2.9704        15.7300 
      9375.0000         8.6970        74.5300        83.7707       152.7997         2.4700         2.4929         0.0000         2.5352         2.5682         2.7278         2.8549        16.0800 
      9375.5000         8.6970        76.1700        83.6203       153.5607         2.4000         2.4605         0.0000         2.3105         2.3635         2.4571         2.5279        17.6100 
      9376.0000         8.6970        59.3800        83.8051       154.9310         2.3900         2.4005         0.0000         2.1578         2.1665         2.1423         2.1274        18.5700 
      9376.5000         8.6970        60.9800        83.8069       156.0985         2.4000         2.3828         0.0000         2.2152         2.1224         2.0085         1.9966        18.4300 
      9377.0000         8.6970        62.1600        84.3110       157.0142         2.4000         2.4036         0.0000         2.3320         2.2430         2.0410         2.0693        18.0500 
      9377.5000         8.6970        64.8600        84.8067       156.5847         2.4000         2.4216         0.0000         2.0757         1.9525         1.9298         2.0110        16.9900 
      9378.0000         8.6970        59.2500        85.2340       155.9772         2.4000         2.4189         0.0000         2.0585         1.9130         1.9410         1.9973        16.9100 
      9378.5000         8.6970        52.8500        85.3214       155.7014         2.4300         2.4313         0.0000         2.1336         2.0799         2.0525         2.0814        16.9800 
      9379.0000         8.6970        61.8300        85.3602       156.1764         2.4400         2.4321         0.0100         2.0752         2.1230         2.1247         2.1984        17.2500 
      9379.5000         8.6970        66.5300        85.0048       156.5867         2.4200         2.4428         0.0100         1.9503         2.0013         2.0031         2.1162        17.1800 
      9380.0000         8.6970        64.5900        84.4013       155.8936         2.3800         2.3920        -0.0100         1.7120         1.6978         1.7530         1.8297        17.4200 
      9380.5000         8.7044        59.8300        84.4003       154.9927         2.3700         2.3675        -0.0100         1.7555         1.6841         1.7027         1.6982        18.4700 
      9381.0000         8.7277        65.8900        85.2649       155.7415         2.4300         2.3932         0.0100         2.1260         2.0825         1.9445         1.8868        19.2900 
      9381.5000         8.7400        68.6600        86.4582       159.4238         2.4700         2.4058        -0.0100         2.3725         2.5168         2.2788         2.2905        19.3800 
      9382.0000         8.7881        70.2500        87.3261       163.6025         2.5000         2.4625         0.0000         2.0665         2.2851         2.1109         2.2827        19.2100 
