~Version Information Block
VERS .                 2.00:  CWLS LOG ASCII STANDARD - VERSION 2.00
WRAP .                   NO:  One line per depth step
~Well Information Block
#MNEM.UNIT        Data Type   Information
#---------- ----------------  -----------
STRT .F                8542:  START DEPTH
STOP .F               10343:  STOP DEPTH
STEP .F                 0.5:  STEP
NULL .              -999.25:  NULL VALUE
COMP .     PETRO-CANADA UK LTD:  COMPANY
WELL .             12/25-4Y:  WELL
FLD  .               NUTMEG:  FIELD
LOC  .            NORTH SEA:  LOCATION
PROV .                 UKCS:  PROVINCE
SRVC .          HALLIBURTON:  SERVICE COMPANY
DATE .         SEP-OCT-2009:  LOG DATE
UWI  .               500044:  UNIQUE WELL ID
~Curve Information Block
#MNEM.UNIT         API CODE   Curve Description
#---------- ----------------  -----------------
DEPTH.F                    :  Depth Curve
ACCA .IN                   :  Edited Composite Caliper
CGRC .GAPI                 :  Edited Combined Gamma Ray
DTC  .US/F                 :  Edited BAT DTC - Compressional
DTRS .US/F                 :  Edited BAT Refracted Shear
HDBQ .G/CC                 :  Edited Density - Bottom Quad
HDTQ .G/CC                 :  Edited Density - Top Quad
HRBQ .G/CC                 :  Edited Delta Rho - Bot Quad
SEDP .OHMM                 :  Edited Deep Phase Resistivity
SEMP .OHMM                 :  Edited Medium Phase Resistivity
SESP .OHMM                 :  Edited Shallow Phase Resistivity
SEXP .OHMM                 :  Edited X-Shallow Phase Resistivity
TNPL .%                    :  Edited Thermal Neutron Porosity
~Parameter Information Block
#MNEM.UNIT            Value   Description
#---------- ----------------  -----------
SET  .             COMP_LWD:  
PROJ .            125TH_I_1:  
DATU .                  MSL:  
TDD  .F               10388:  
EKB  .F                  88:  
LATI .       58 16'56.460"N:  
LONG .       02 00'23.925"W:  
LMF  .                   RT:  
SURF .F                -301:  
~Other Information Block
~A        DEPTH           ACCA           CGRC            DTC           DTRS           HDBQ           HDTQ           HRBQ           SEDP           SEMP           SESP           SEXP           TNPL 
# ...
     10059.0000         8.6970        46.3500      -999.2500       130.9400         2.3900         2.4097         0.0100         1.3289         1.3365         1.4748         1.6770        15.1900 
     10059.5000         8.6970        46.7400      -999.2500       130.3712         2.3800         2.3989         0.0200         1.3363         1.4047         1.5790         1.7579        15.0600 
     10060.0000         8.6970        47.2100      -999.2500       130.3387         2.3800         2.3781         0.0000         1.3604         1.4969         1.6491         1.7937        15.0600 
     10060.5000         8.6970        48.8000      -999.2500       130.5094         2.3900         2.3824         0.0100         1.3819         1.5514         1.6720         1.8148        15.2000 
     10061.0000         8.6970        50.5100      -999.2500       130.4572         2.4000         2.4005         0.0100         1.3686         1.5088         1.6241         1.7853        15.3300 
     10061.5000         8.6970        50.2600      -999.2500       129.6747         2.3700         2.3967         0.0000         1.3613         1.4228         1.5532         1.7186        15.4600 
     10062.0000         8.6970        47.8000      -999.2500       128.6234         2.3700         2.3888         0.0000         1.3719         1.3934         1.5173         1.6682        15.5000 
     10062.5000         8.6970        45.0500      -999.2500       127.9235         2.3800         2.3879         0.0000         1.4419         1.4465         1.5542         1.6996        15.2900 
     10063.0000         8.6970        46.3400      -999.2500       127.3095         2.3900         2.4006         0.0000         1.5672         1.6049         1.7154         1.8889        14.3700 
     10063.5000         8.6970        50.5200      -999.2500       126.5717         2.3900         2.3976         0.0000         1.6400         1.7161         1.8432         2.0733        13.8000 
     10064.0000         8.6970        50.2700      -999.2500       126.1169         2.3900         2.4148         0.0000         1.6547         1.7462         1.8994         2.1492        13.7800 
     10064.5000         8.6970        51.4500      -999.2500       125.7677         2.4100         2.4063         0.0100         1.6581         1.7594         1.9472         2.2273        13.7900 
     10065.0000         8.6970        54.1400      -999.2500       125.3877         2.4100         2.4271         0.0100         1.6506         1.7642         1.9916         2.2744        13.6200 
     10065.5000         8.6970        53.4500      -999.2500       124.6997         2.4200         2.4180         0.0100         1.6621         1.7848         2.0322         2.2884        13.6100 
     10066.0000         8.6970        48.2000      -999.2500       123.4176         2.4200         2.4176         0.0100         1.7288         1.8355         2.0556         2.2647        13.3000 
     10066.5000         8.6970        48.7900      -999.2500       121.5228         2.4200         2.4090         0.0000         1.8774         1.9526         2.1379         2.3332        12.9000 
     10067.0000         8.6970        50.3400      -999.2500       119.5029         2.4300         2.4198         0.0000         2.0367         2.0614         2.2340         2.4506        12.4900 
     10067.5000         8.6970        49.1100      -999.2500       117.9218         2.4500         2.4328         0.0000         2.3502         2.3382         2.5302         2.7866        11.5400 
     10068.0000         8.6970        50.8300      -999.2500       116.8381         2.4600         2.4426         0.0000         2.6436         2.6772         2.9022         3.2446        10.9200 
     10068.5000         8.7023        52.9500      -999.2500       116.1518         2.4900         2.4664         0.0100         2.9985         3.1395         3.3720         3.7650        10.5900 
     10069.0000         8.7580        53.1300      -999.2500       115.7915         2.5100         2.4813         0.0100         3.3430         3.6857         4.0251         4.4188        10.1900 
     10069.5000         8.7269        57.6200      -999.2500       115.5450         2.5100         2.4906         0.0100         3.4222         3.9291         4.3886         4.9105        10.2900 
     10070.0000         8.6986        57.6600      -999.2500       115.4923         2.4700         2.5034         0.0000         3.3712         3.9133         4.4112         4.9868        10.9400 
     10070.5000         8.6970        53.5600      -999.2500       115.5431         2.4600         2.4805         0.0000         3.2514         3.7919         4.2845         4.8534        11.5300 
     10071.0000         8.6970        51.7000      -999.2500       115.4503         2.4400         2.4605         0.0000         3.0251         3.4130         3.8177         4.2291        11.9500 
     10071.5000         8.6970        48.3600      -999.2500       115.3327         2.4400         2.4470         0.0000         2.9167         3.1420         3.3987         3.6735        11.9700 
     10072.0000         8.6970        46.9800      -999.2500       115.3654         2.4600         2.4580         0.0000         2.9184         3.0966         3.3096         3.6118        11.7000 
     10072.5000         8.6970        44.8100      -999.2500       115.6909         2.4400         2.4553         0.0000         2.8813         3.0484         3.2308         3.5988        11.3500 
     10073.0000         8.6970        44.0000      -999.2500       115.9139         2.4400         2.4507         0.0000         2.7933         2.9213         3.1239         3.5616        11.4500 
     10073.5000         8.6970        43.8600      -999.2500       116.0384         2.4200         2.4423         0.0000         2.6490         2.7493         3.0119         3.4826        11.6800 
     10074.0000         8.6970        44.9200      -999.2500       116.1793         2.4000         2.4313         0.0000         2.4435         2.5482         2.8651         3.2842        12.3100 
     10074.5000         8.6970        38.4100      -999.2500       116.2466         2.4000         2.4244         0.0000         2.1818         2.3338         2.6517         2.9961        13.0100 
     10075.0000         8.6970        39.9000      -999.2500       116.3077         2.3900         2.4253         0.0000         2.0032         2.2046         2.5008         2.8334        13.1100 
     10075.5000         8.6970        41.7800      -999.2500       116.4019         2.3900         2.4098         0.0000         1.8473         2.0422         2.3261         2.6667        12.8900 
     10076.0000         8.6970        39.5900      -999.2500       116.5856         2.4000         2.4133         0.0100         1.7375         1.8833         2.1478         2.5342        12.6000 
     10076.5000         8.6970        38.1600      -999.2500       116.8140         2.4300         2.4300         0.0100         1.6829         1.7527         2.0202         2.4517        12.2400 
     10077.0000         8.6970        37.5500      -999.2500       117.1325         2.4400         2.4330         0.0100         1.7124         1.7508         2.0377         2.4733        12.0900 
     10077.5000         8.6970        36.9400      -999.2500       117.3631         2.4300         2.4477         0.0100         1.8372         1.8785         2.1887         2.6150        11.7800 
     10078.0000         8.6970        45.1500      -999.2500       117.3079         2.4300         2.4329         0.0000         1.9237         1.9940         2.3131         2.7282        11.7300 
     10078.5000         8.6970        46.7200      -999.2500       117.2090         2.4700         2.4435         0.0100         2.0179         2.1292         2.4747         2.8519        11.9600 
     10079.0000         8.6974        47.0000      -999.2500       116.9441         2.4600         2.4557         0.0000         2.1414         2.3032         2.6573         3.0134        11.5000 
