~Version Information Block
VERS .                 2.00:  CWLS LOG ASCII STANDARD - VERSION 2.00
WRAP .                   NO:  One line per depth step
~Well Information Block
#MNEM.UNIT        Data Type   Information
#---------- ----------------  -----------
STRT .F                8542:  START DEPTH
STOP .F               10343:  STOP DEPTH
STEP .F                 0.5:  STEP
NULL .              -999.25:  NULL VALUE
COMP .     PETRO-CANADA UK LTD:  COMPANY
WELL .             12/25-4Y:  WELL
FLD  .               NUTMEG:  FIELD
LOC  .            NORTH SEA:  LOCATION
PROV .                 UKCS:  PROVINCE
SRVC .          HALLIBURTON:  SERVICE COMPANY
DATE .         SEP-OCT-2009:  LOG DATE
UWI  .               500044:  UNIQUE WELL ID
~Curve Information Block
#MNEM.UNIT         API CODE   Curve Description
#---------- ----------------  -----------------
DEPTH.F                    :  Depth Curve
ACCA .IN                   :  Edited Composite Caliper
CGRC .GAPI                 :  Edited Combined Gamma Ray
DTC  .US/F                 :  Edited BAT DTC - Compressional
DTRS .US/F                 :  Edited BAT Refracted Shear
HDBQ .G/CC                 :  Edited Density - Bottom Quad
HDTQ .G/CC                 :  Edited Density - Top Quad
HRBQ .G/CC                 :  Edited Delta Rho - Bot Quad
SEDP .OHMM                 :  Edited Deep Phase Resistivity
SEMP .OHMM                 :  Edited Medium Phase Resistivity
SESP .OHMM                 :  Edited Shallow Phase Resistivity
SEXP .OHMM                 :  Edited X-Shallow Phase Resistivity
TNPL .%                    :  Edited Thermal Neutron Porosity
~Parameter Information Block
#MNEM.UNIT            Value   Description
#---------- ----------------  -----------
SET  .             COMP_LWD:  
PROJ .            125TH_I_1:  
DATU .                  MSL:  
TDD  .F               10388:  
EKB  .F                  88:  
LATI .       58 16'56.460"N:  
LONG .       02 00'23.925"W:  
LMF  .                   RT:  
SURF .F                -301:  
~Other Information Block
~A        DEPTH           ACCA           CGRC            DTC           DTRS           HDBQ           HDTQ           HRBQ           SEDP           SEMP           SESP           SEXP           TNPL 
# ...
      9116.0000         8.6970        54.9500      -999.2500       135.9744         2.2900         2.4405         0.0100         2.1858         2.3306         2.5261         2.5484        24.3500 
      9116.5000         8.6970        44.5800      -999.2500       134.7841         2.2100         2.3162         0.0000         1.6279         1.6078         1.7206         1.7315        26.1500 
      9117.0000         8.6970        31.2400      -999.2500       133.7696         2.2000         2.2403         0.0100         1.6120         1.4422         1.4655         1.4427        25.4400 
      9117.5000         8.6970        34.8700      -999.2500       134.0544         2.3000         2.2201         0.0200         1.7415         1.4743         1.4285         1.3938        25.4100 
      9118.0000         8.6970        34.7400      -999.2500       135.0762         2.3800         2.2712         0.0100         2.4454         2.1183         1.8462         1.8936        24.6300 
      9118.5000         8.6970        37.4000      -999.2500       136.3886         2.2300         2.4076         0.0100         3.3762         3.0345         2.3319         2.5369        23.9700 
      9119.0000         8.6897        36.3400      -999.2500       137.3919         2.1900         2.3331         0.0200         3.2672         2.9374         2.2568         2.6769        26.6500 
      9119.5000         8.6362        38.5600      -999.2500       137.2036         2.1800         2.1908         0.0200         2.1500         1.9098         1.8023         2.1213        28.4300 
      9120.0000         8.6914        38.7900      -999.2500       136.2586         2.1800         2.1968         0.0200         1.3505         1.3101         1.2205         1.2130        27.3200 
      9120.5000         8.6970        37.8000      -999.2500       135.7892         2.2000         2.1720         0.0100         1.4550         1.3631         1.2517         1.2737        27.0100 
      9121.0000         8.6679        40.9500      -999.2500       136.1228         2.2200         2.2080         0.0100         1.8895         1.7098         1.5727         1.6060        26.0300 
      9121.5000         8.6546        45.1300      -999.2500       137.1445         2.2200         2.2465         0.0100         2.1573         2.1442         1.8344         1.9309        25.4200 
      9122.0000         8.6625        40.6900      -999.2500       138.3545         2.2200         2.2105         0.0100         1.9008         1.8555         1.7328         1.9226        25.6200 
      9122.5000         8.6088        38.1600      -999.2500       139.6266         2.2500         2.2105         0.0200         1.4856         1.5282         1.5054         1.5430        25.4600 
      9123.0000         8.6059        36.2800      -999.2500       140.1864         2.2300         2.2382         0.0000         1.4535         1.5436         1.4840         1.4923        25.0000 
      9123.5000         8.6059        37.3400      -999.2500       139.9729         2.2000         2.2366         0.0100         1.3002         1.3055         1.2967         1.3867        24.6700 
      9124.0000         8.6059        37.1400      -999.2500       139.4133         2.2700         2.2250         0.0100         1.2929         1.2180         1.2722         1.3578        24.4100 
      9124.5000         8.6059        31.3600      -999.2500       138.6502         2.3300         2.2627         0.0000         1.4375         1.4185         1.4520         1.5264        23.8600 
      9125.0000         8.6059        34.3700      -999.2500       137.7624         2.3100         2.3154         0.0000         1.4340         1.4123         1.4641         1.6256        22.9500 
      9125.5000         8.6059        38.0300      -999.2500       136.6920         2.2500         2.2734         0.0300         1.2305         1.1883         1.3114         1.4820        23.2200 
      9126.0000         8.6059        39.6600      -999.2500       135.0163         2.2200         2.2006         0.0200         1.3295         1.2740         1.3746         1.4718        26.0300 
      9126.5000         8.6225        38.4500      -999.2500       132.9085         2.2100         2.1882         0.0200         1.3916         1.3422         1.3951         1.4507        26.4700 
      9127.0000         8.6584        38.3600      -999.2500       129.9503         2.2300         2.1928         0.0200         1.5185         1.4186         1.4371         1.5218        26.0400 
      9127.5000         8.6092        40.2100      -999.2500       127.6584         2.2600         2.1971         0.0000         1.7096         1.5806         1.6133         1.7035        25.3700 
      9128.0000         8.6354        38.4500      -999.2500       127.4714         2.2700         2.2162         0.0000         1.8686         1.7763         1.7842         1.9035        24.5700 
      9128.5000         8.6710        31.5200      -999.2500       127.3787         2.2600         2.2527         0.0200         1.9853         1.9794         2.0007         2.2165        24.0700 
      9129.0000         8.6215        33.5700      -999.2500       127.8932         2.2600         2.2558         0.0200         1.9637         1.9183         2.0511         2.3605        23.5000 
      9129.5000         8.6069        32.5000      -999.2500       128.2679         2.3300         2.2328         0.0400         1.9499         1.8439         1.9888         2.2266        22.4400 
      9130.0000         8.6362        33.5700      -999.2500       130.1543         2.4900         2.1660         0.0000         2.1830         2.0925         1.9803         2.1367        18.3700 
      9130.5000         8.6140        32.6500      -999.2500       135.6676         2.5500         2.1618         0.0000         2.6438         2.5641         2.1258         2.4889        16.8100 
      9131.0000         8.6059        32.9500      -999.2500       144.4825         2.4500         2.1995        -0.0300         3.0375         2.8718         2.9218         3.7521        16.7100 
      9131.5000         8.6059        33.5700      -999.2500       150.7581         2.3200         2.2368        -0.0300         2.6316         2.7873         3.1137         3.8033        20.5000 
      9132.0000         8.6059        37.5200      -999.2500       153.7759         2.2000         2.2327         0.0200         1.3809         1.4762         1.6227         1.8040        25.3600 
      9132.5000         8.6059        40.3700      -999.2500       154.9695         2.1900         2.1847         0.0000         1.0146         1.0524         1.0265         1.0622        27.5500 
      9133.0000         8.6059        41.5000      -999.2500       154.1638         2.2000         2.1851         0.0000         1.1215         1.0607         0.9823         0.9864        27.0900 
      9133.5000         8.5866        41.9700      -999.2500       151.6983         2.2300         2.2481         0.0000         1.1853         1.0236         0.9506         0.9869        25.5100 
      9134.0000         8.5856        44.9400      -999.2500       145.9568         2.2100         2.2405         0.0000         1.2107         0.9321         0.9936         1.0849        23.1800 
      9134.5000         8.6059        46.2700      -999.2500       133.9431         2.2900         2.2468         0.0000         1.3297         1.1833         1.2664         1.3627        18.8500 
      9135.0000         8.6059        44.4800      -999.2500       119.7520         2.5200         2.3678         0.0200         1.9488         1.9538         1.9225         2.2198        14.0900 
      9135.5000         8.6728        32.4100      -999.2500       111.6857         2.5200         2.4950         0.0000         2.5026         2.4067         2.5283         3.1927        11.7200 
      9136.0000         8.6931        34.6200      -999.2500       111.0468         2.4300         2.5613        -0.0100         2.7368         2.7676         3.0687         4.1267         9.7100 
