~Version Information Block
VERS .                 2.00:  CWLS LOG ASCII STANDARD - VERSION 2.00
WRAP .                   NO:  One line per depth step
~Well Information Block
#MNEM.UNIT        Data Type   Information
#---------- ----------------  -----------
STRT .F                8542:  START DEPTH
STOP .F               10343:  STOP DEPTH
STEP .F                 0.5:  STEP
NULL .              -999.25:  NULL VALUE
COMP .     PETRO-CANADA UK LTD:  COMPANY
WELL .             12/25-4Y:  WELL
FLD  .               NUTMEG:  FIELD
LOC  .            NORTH SEA:  LOCATION
PROV .                 UKCS:  PROVINCE
SRVC .          HALLIBURTON:  SERVICE COMPANY
DATE .         SEP-OCT-2009:  LOG DATE
UWI  .               500044:  UNIQUE WELL ID
~Curve Information Block
#MNEM.UNIT         API CODE   Curve Description
#---------- ----------------  -----------------
DEPTH.F                    :  Depth Curve
ACCA .IN                   :  Edited Composite Caliper
CGRC .GAPI                 :  Edited Combined Gamma Ray
DTC  .US/F                 :  Edited BAT DTC - Compressional
DTRS .US/F                 :  Edited BAT Refracted Shear
HDBQ .G/CC                 :  Edited Density - Bottom Quad
HDTQ .G/CC                 :  Edited Density - Top Quad
HRBQ .G/CC                 :  Edited Delta Rho - Bot Quad
SEDP .OHMM                 :  Edited Deep Phase Resistivity
SEMP .OHMM                 :  Edited Medium Phase Resistivity
SESP .OHMM                 :  Edited Shallow Phase Resistivity
SEXP .OHMM                 :  Edited X-Shallow Phase Resistivity
TNPL .%                    :  Edited Thermal Neutron Porosity
~Parameter Information Block
#MNEM.UNIT            Value   Description
#---------- ----------------  -----------
SET  .             COMP_LWD:  
PROJ .            125TH_I_1:  
DATU .                  MSL:  
TDD  .F               10388:  
EKB  .F                  88:  
LATI .       58 16'56.460"N:  
LONG .       02 00'23.925"W:  
LMF  .                   RT:  
SURF .F                -301:  
~Other Information Block
~A        DEPTH           ACCA           CGRC            DTC           DTRS           HDBQ           HDTQ           HRBQ           SEDP           SEMP           SESP           SEXP           TNPL 
# ...
     10284.5000         8.6970        30.0100      -999.2500      -999.2500         2.3000         2.3064         0.0100         0.8907         0.8828         0.9211         1.0146        19.1100 
     10285.0000         8.6970        31.1800      -999.2500      -999.2500         2.3000         2.3162         0.0000         0.8570         0.8585         0.9061         1.0101        19.3400 
     10285.5000         8.6970        27.2200      -999.2500      -999.2500         2.3000         2.3370        -0.0100         0.8299         0.8189         0.8678         0.9728        19.0900 
     10286.0000         8.6970        28.1600      -999.2500      -999.2500         2.2900         2.3648        -0.0100         0.8831         0.8673         0.9045         1.0118        18.7500 
     10286.5000         8.6970        29.3200      -999.2500      -999.2500         2.3200         2.3241         0.0200         0.9463         0.9349         0.9754         1.1108        18.0300 
     10287.0000         8.6970        28.9900      -999.2500      -999.2500         2.3400         2.3148         0.0200         0.9860         0.9845         1.0495         1.2236        17.5100 
     10287.5000         8.6970        31.1400      -999.2500      -999.2500         2.3600         2.3294         0.0200         1.0109         1.0132         1.1006         1.2901      -999.2500 
     10288.0000         8.6970        29.4800      -999.2500      -999.2500         2.3500         2.3583         0.0100         1.0351         1.0504         1.1426         1.3400      -999.2500 
     10288.5000         8.6970        31.7800      -999.2500      -999.2500         2.3400         2.3492         0.0000         1.0703         1.1091         1.2103         1.4115      -999.2500 
     10289.0000         8.6970        30.2900      -999.2500      -999.2500         2.3400         2.3524        -0.0100         1.0687         1.1240         1.2374         1.4574      -999.2500 
     10289.5000         8.6970        28.7600      -999.2500      -999.2500         2.3300         2.3344         0.0000         1.0347         1.0877         1.1985         1.4154      -999.2500 
     10290.0000         8.6970        27.4500      -999.2500      -999.2500         2.3300         2.3245         0.0000         1.0092         1.0510         1.1499         1.3314      -999.2500 
     10290.5000         8.6970        30.7400      -999.2500      -999.2500         2.3400         2.3233         0.0100         0.9942         1.0215         1.1040         1.2601      -999.2500 
     10291.0000         8.6970        27.7400      -999.2500      -999.2500         2.3400         2.3325         0.0100         0.9861         0.9774         1.0434         1.1937      -999.2500 
     10291.5000         8.7067        27.8500      -999.2500      -999.2500         2.3400         2.3217         0.0100         1.0070         0.9728         1.0309         1.1682      -999.2500 
     10292.0000         8.7497        28.8900      -999.2500      -999.2500         2.3600         2.3473         0.0100         1.0788         1.0468         1.0901         1.2156      -999.2500 
     10292.5000         8.7167        28.3700      -999.2500      -999.2500         2.3700         2.3566         0.0100         1.1058         1.0838         1.1267         1.2559      -999.2500 
     10293.0000         8.6971        33.2100      -999.2500      -999.2500         2.3600         2.3636         0.0100         1.1013         1.1035         1.1505         1.2853      -999.2500 
     10293.5000         8.6970        31.6300      -999.2500      -999.2500         2.3200         2.3632         0.0000         1.0484         1.0712         1.1361         1.2572      -999.2500 
     10294.0000         8.6970        32.6200      -999.2500      -999.2500         2.2900         2.3432         0.0000         0.9674         0.9864         1.0556         1.1549      -999.2500 
     10294.5000         8.6970        32.6500      -999.2500      -999.2500         2.3000         2.3152         0.0000         0.9207         0.9339         0.9773         1.0496      -999.2500 
     10295.0000         8.6970        31.5700      -999.2500      -999.2500         2.3100         2.3128         0.0000         0.9057         0.9150         0.9295         0.9686      -999.2500 
     10295.5000         8.6970        30.5600      -999.2500      -999.2500         2.3100         2.3098         0.0000         0.8980         0.9014         0.9045         0.9431      -999.2500 
     10296.0000         8.6970        31.4800      -999.2500      -999.2500         2.3400         2.3105         0.0100         0.9008         0.8698         0.8664         0.9140      -999.2500 
     10296.5000         8.6970        32.4400      -999.2500      -999.2500         2.3500         2.3378         0.0000         0.9893         0.9422         0.9391         0.9744      -999.2500 
     10297.0000         8.6970        30.3200      -999.2500      -999.2500         2.3300         2.3485         0.0100         1.0787         1.0793         1.0771         1.1416      -999.2500 
     10297.5000         8.6970        34.4000      -999.2500      -999.2500         2.3200         2.3209         0.0100         1.0035         1.0013         1.0426         1.1739      -999.2500 
     10298.0000      -999.2500        42.8000      -999.2500      -999.2500         2.3200         2.2923         0.0000         0.9016         0.8869         0.9364         1.0445      -999.2500 
     10298.5000      -999.2500        54.0300      -999.2500      -999.2500         2.3300         2.3057         0.0000         0.9400         0.9306         0.9509         0.9996      -999.2500 
     10299.0000      -999.2500        79.5100      -999.2500      -999.2500         2.3400         2.3321         0.0100         0.9651         0.9715         0.9759         1.0186      -999.2500 
     10299.5000      -999.2500       105.3400      -999.2500      -999.2500         2.3300         2.3282        -0.0100         0.9605         0.9954         0.9849         1.0696      -999.2500 
     10300.0000      -999.2500       107.6200      -999.2500      -999.2500         2.3000         2.3251         0.0000         0.9160         0.9633         0.9823         1.0822      -999.2500 
     10300.5000      -999.2500        94.6900      -999.2500      -999.2500         2.2900         2.3234         0.0000         0.8583         0.8669         0.9328         1.0305      -999.2500 
     10301.0000      -999.2500        70.8700      -999.2500      -999.2500      -999.2500      -999.2500      -999.2500         0.8648         0.8090         0.8661         0.9526      -999.2500 
     10301.5000      -999.2500        52.2300      -999.2500      -999.2500      -999.2500      -999.2500      -999.2500         1.1076         0.9540         0.9202         0.9734      -999.2500 
     10302.0000      -999.2500        47.2200      -999.2500      -999.2500      -999.2500      -999.2500      -999.2500         1.7392         1.6044         1.4296         1.5478      -999.2500 
     10302.5000      -999.2500        42.2700      -999.2500      -999.2500      -999.2500      -999.2500      -999.2500         1.9732         2.0529         1.9573         2.3196      -999.2500 
     10303.0000      -999.2500        39.4800      -999.2500      -999.2500      -999.2500      -999.2500      -999.2500         1.7904         1.9314         2.1954         2.8182      -999.2500 
     10303.5000      -999.2500        40.3000      -999.2500      -999.2500      -999.2500      -999.2500      -999.2500         1.6382         1.7004         2.0698         2.4833      -999.2500 
     10304.0000      -999.2500        41.5500      -999.2500      -999.2500      -999.2500      -999.2500      -999.2500         1.8424         1.9174         2.0602         2.2636      -999.2500 
     10304.5000      -999.2500        49.7200      -999.2500      -999.2500      -999.2500      -999.2500      -999.2500         2.3795         2.3006         2.2084         2.3541      -999.2500 
