~Version Information Block
VERS .                 2.00:  CWLS LOG ASCII STANDARD - VERSION 2.00
WRAP .                   NO:  One line per depth step
~Well Information Block
#MNEM.UNIT        Data Type   Information
#---------- ----------------  -----------
STRT .F                8542:  START DEPTH
STOP .F               10343:  STOP DEPTH
STEP .F                 0.5:  STEP
NULL .              -999.25:  NULL VALUE
COMP .     PETRO-CANADA UK LTD:  COMPANY
WELL .             12/25-4Y:  WELL
FLD  .               NUTMEG:  FIELD
LOC  .            NORTH SEA:  LOCATION
PROV .                 UKCS:  PROVINCE
SRVC .          HALLIBURTON:  SERVICE COMPANY
DATE .         SEP-OCT-2009:  LOG DATE
UWI  .               500044:  UNIQUE WELL ID
~Curve Information Block
#MNEM.UNIT         API CODE   Curve Description
#---------- ----------------  -----------------
DEPTH.F                    :  Depth Curve
ACCA .IN                   :  Edited Composite Caliper
CGRC .GAPI                 :  Edited Combined Gamma Ray
DTC  .US/F                 :  Edited BAT DTC - Compressional
DTRS .US/F                 :  Edited BAT Refracted Shear
HDBQ .G/CC                 :  Edited Density - Bottom Quad
HDTQ .G/CC                 :  Edited Density - Top Quad
HRBQ .G/CC                 :  Edited Delta Rho - Bot Quad
SEDP .OHMM                 :  Edited Deep Phase Resistivity
SEMP .OHMM                 :  Edited Medium Phase Resistivity
SESP .OHMM                 :  Edited Shallow Phase Resistivity
SEXP .OHMM                 :  Edited X-Shallow Phase Resistivity
TNPL .%                    :  Edited Thermal Neutron Porosity
~Parameter Information Block
#MNEM.UNIT            Value   Description
#---------- ----------------  -----------
SET  .             COMP_LWD:  
PROJ .            125TH_I_1:  
DATU .                  MSL:  
TDD  .F               10388:  
EKB  .F                  88:  
LATI .       58 16'56.460"N:  
LONG .       02 00'23.925"W:  
LMF  .                   RT:  
SURF .F                -301:  
~Other Information Block
~A        DEPTH           ACCA           CGRC            DTC           DTRS           HDBQ           HDTQ           HRBQ           SEDP           SEMP           SESP           SEXP           TNPL 
# ...
      9013.5000         8.6970       156.6700        78.0625       165.5188         2.5400         2.5463        -0.0100         3.3825         3.1785         3.1771         3.2970        28.7600 
      9014.0000         8.6970       145.0900        77.4670       163.9212         2.5600         2.5485         0.0000         3.3117         3.1401         3.1963         3.3136        27.8200 
      9014.5000         8.6970       127.0700        77.5347       165.3060         2.6500         2.5796         0.0100         3.5201         3.4554         3.5088         3.5944        27.8600 
      9015.0000         8.6970       111.5700        75.9282       168.0688         2.7000         2.6700         0.0000         3.5091         3.5340         3.6651         3.9199        27.2000 
      9015.5000         8.6970       115.2800        74.8600       171.3716         2.6800         2.7313         0.0100         3.1160         3.0705         3.2313         3.5785        26.6900 
      9016.0000         8.6970       120.4100        75.0896       172.8889         2.6000         2.6826         0.0100         2.8742         2.7664         2.9698         3.2516        27.8700 
      9016.5000         8.6970       134.1000        74.3046       174.4410         2.5600         2.5444         0.0000         2.8373         2.7016         2.8545         2.9892        28.7400 
      9017.0000         8.6970       139.1100        74.1402       176.5726         2.5400         2.5228         0.0000         2.8227         2.6760         2.7430         2.7691        28.9200 
      9017.5000         8.6970       136.9800        74.6086       177.6265         2.5200         2.5279        -0.0100         2.8264         2.6651         2.6709         2.6927        29.5300 
      9018.0000         8.6970       136.8900        74.9859       177.8300         2.5500         2.5418         0.0000         2.7950         2.6475         2.6361         2.6696        29.1800 
      9018.5000         8.6970       115.7600        74.1959       178.6319         2.5700         2.5591        -0.0100         2.7404         2.5867         2.5786         2.6234        28.3400 
      9019.0000         8.6898       137.9300        74.2279       178.5426         2.5700         2.5580        -0.0100         2.6769         2.5062         2.5100         2.5641        28.1200 
      9019.5000         8.6528       140.8600        73.6242       178.4526         2.5700         2.5563         0.0000         2.6587         2.4889         2.4830         2.5172        28.3100 
      9020.0000         8.6927       129.4500        74.5516       178.8389         2.5700         2.5488         0.0100         2.7056         2.5553         2.5303         2.5392        28.5900 
      9020.5000         8.6611       135.0900        75.8699       178.0902         2.5600         2.5798         0.0000         2.7163         2.5948         2.5692         2.5961        28.6500 
      9021.0000         8.6568       133.0900        76.7413       175.6339         2.5500         2.5790         0.0000         2.5823         2.4652         2.4935         2.5612        28.3900 
      9021.5000         8.6970       137.0600        76.0694       175.9454         2.5500         2.5455         0.0000         2.5626         2.4002         2.4389         2.4807        29.0900 
      9022.0000         8.6970       136.7000        73.8321       174.8174         2.5500         2.5296         0.0100         2.6309         2.4671         2.4737         2.4891        29.1900 
      9022.5000         8.6970       128.7800        73.0808       172.5204         2.5400         2.5309         0.0100         2.7196         2.5915         2.5625         2.5924        28.4800 
      9023.0000         8.6970       140.2800        71.8584       170.9171         2.5500         2.5314         0.0100         2.7643         2.6775         2.6358         2.7050        28.9400 
      9023.5000         8.6970       143.0000        72.8667       169.8624         2.5500         2.5408         0.0000         2.8018         2.6843         2.6741         2.7533        28.9300 
      9024.0000         8.6970       134.5600        75.2944       169.2008         2.5400         2.5469         0.0000         2.8447         2.7230         2.7188         2.7674        29.2800 
      9024.5000         8.6970       134.5500        74.1676       171.3904         2.5200         2.5471         0.0000         2.8571         2.7415         2.7356         2.7953        29.2300 
      9025.0000         8.6970       135.1900        74.0801       172.2138         2.5400         2.5366         0.0000         2.9361         2.8435         2.8307         2.9186        29.1900 
      9025.5000         8.6970       134.4700        74.2257       172.5996         2.5300         2.5360        -0.0200         2.9757         2.8896         2.9249         3.0219        28.6700 
      9026.0000         8.6970       139.4600        74.2445       173.4353         2.5400         2.5547        -0.0100         2.9649         2.8818         2.9605         3.1010        28.8900 
      9026.5000         8.6970       129.5400        74.7637       173.6836         2.5400         2.5537        -0.0100         2.9285         2.8375         2.9257         3.1008        28.7300 
      9027.0000         8.6970       130.4700        75.9327       173.5920         2.5500         2.5390         0.0000         2.9066         2.7967         2.8759         3.0090        29.3400 
      9027.5000         8.6970       122.3000        76.7486       173.4312         2.5400         2.5407         0.0000         2.9459         2.8121         2.8803         2.9578        29.6100 
      9028.0000         8.6970       129.1700        76.2711       173.0085         2.5700         2.5542        -0.0100         3.0637         2.9294         2.9482         2.9938        29.4200 
      9028.5000         8.6970       131.7500        76.4309       172.3740         2.6100         2.5641        -0.0100         3.0903         2.9557         2.9503         3.0421        29.6000 
      9029.0000         8.6970       129.6100        76.4136       172.0936         2.5900         2.5705        -0.0100         3.0658         2.8758         2.9027         2.9988        28.5500 
      9029.5000         8.6970       134.7300        76.2379       172.4753         2.5700         2.5946         0.0000         2.9805         2.7508         2.7984         2.8818        28.2500 
      9030.0000         8.6970       131.7500        75.4809       172.2375         2.5500         2.5642         0.0000         2.9423         2.7422         2.7549         2.7847        28.8100 
      9030.5000         8.7001       128.8400        75.4932       171.2821         2.5200         2.5178        -0.0100         2.8888         2.6875         2.6772         2.7070        28.8600 
      9031.0000         8.7461       139.2900        74.6535       170.5665         2.5600         2.5364         0.0100         2.8080         2.5825         2.5632         2.6031        29.0400 
      9031.5000         8.7033       138.5900        75.5715       169.9761         2.5600         2.5450         0.0100         2.8009         2.5408         2.5055         2.5202        28.9200 
      9032.0000         8.6970       135.1600        76.8884       170.3683         2.5500         2.5441        -0.0100         2.8084         2.5513         2.4959         2.4993        29.0700 
      9032.5000         8.6970       145.0500        77.8471       171.6247         2.5700         2.5525         0.0000         2.9102         2.6914         2.6207         2.6163        29.3100 
      9033.0000         8.6970       137.0200        78.6358       173.8237         2.5600         2.5784        -0.0100         2.9863         2.8296         2.7652         2.7952        29.1000 
      9033.5000         8.6970       128.2700        77.0535       174.8474         2.5300         2.6074         0.0000         2.8321         2.7243         2.7538         2.8736        28.6700 
