#------------------------------------------------------------------------------
#
#   Created by  : [OpenWorks] Log Export Utility (LEXP)
#   Created on  : 2007-05-07 11:56:58
#   Project     : NORNE
#   User        : JSE
#   Interpreter : JSE
#
#------------------------------------------------------------------------------
~VERSION INFORMATION
VERS. 2.0 : CWLS Log ASCII Standard - version 2.0
WRAP.  NO : One line per depth step
~WELL INFORMATION
#MNEMONIC   .UNIT                                           VALUE :DESCRIPTION
#------------------------------------------------------------------------------
STRT        .M                                          1300.1250 :START DEPTH
STOP        .M                                          3919.5000 :STOP DEPTH
STEP        .M                                             0.1250 :STEP
NULL        .                                           -999.2500 :NULL VALUE
COMP        .                                             STATOIL :COMPANY
WELL        .                                      	Norne1 	:WELL
FLD         .                                             UNKNOWN :FIELD
LOC         .                                             UNKNOWN :LOCATION
CNTY        .                                             UNKNOWN :COUNTY
STAT        .                                              Norway :STATE
CTRY        .                                              Norway :COUNTRY
SRVC        .                                             UNKNOWN :SERVICE COMPANY
DATE        .                                             UNKNOWN :LOG DATE
UWI         .                                   NO 6608/10-B-4 AH :UNIQUE WELL ID
XCOORD      .                                       457114.155170 :SURFACE X
YCOORD      .                                      7322136.377520 :SURFACE Y
LAT         .                                           66.015409 :LATITUDE
LON         .                                            8.054547 :LONGITUDE
ELEV        .M                                            31.0000 :SURFACE ELEV
ELEV_TYPE   .                                                  KB :ELEV TYPE
~CURVE INFORMATION
#MNEMONIC.UNIT        API CODE       : CURVE DESCRIPTION
#------------------------------------------------------------------------------
DEPTH    .M                          : Measured Depth
TVD      .M                          : True Vertical Depth (TVD)
TVDSS    .M                          : True Vertical Depth (TVDSS)
DTC       .us/ft       UNKNOWN        : DTC:CURVE_LOADER:rC::v0 (auto-composite)
DTS      .us/ft       UNKNOWN        : DTS:CURVE_LOADER:rC::v0 (auto-composite)
GR       .API         UNKNOWN        : GR:CURVE_LOADER:rC::v0 (auto-composite)
KLOGH    .mD          UNKNOWN        : KLOGH:UNKNOWN:rC::v0 (auto-composite)
NPHI     .v/v_decimal UNKNOWN        : NPHI:PETROWORKS:rC:NONE:v2 
PHIF     .v/v_decimal UNKNOWN        : PHIF:UNKNOWN:rC::v0 (auto-composite)
RHOB     .g/cm3       UNKNOWN        : RHOB:PETROWORKS:rC:NONE:v3 
SW       .v/v_decimal UNKNOWN        : SW:UNKNOWN:rC::v0 (auto-composite)
VSH      .v/v_decimal UNKNOWN        : VSH:UNKNOWN:rC::v0 (auto-composite)
~A     DEPTH         TVD       TVDSS           DT          DTS           GR        KLOGH         NPHI         PHIF         RHOB           SW          VSH
# ...
   3789.6250   2752.7432  -2721.7432      86.1230     145.2740      52.8054       9.8973       0.2030       0.1789       2.3517       0.8947       0.0312
   3789.7500   2752.8240  -2721.8240      87.5876     150.1249      52.5585      31.9970       0.2314       0.2099       2.2999       0.8900       0.0284
   3789.8750   2752.9050  -2721.9050      90.4143     157.0426      53.2806     105.3924       0.2535       0.2414       2.2465       0.8774       0.0364
   3790.0000   2752.9861  -2721.9861      91.3941     162.8443      52.7512     292.7668       0.2650       0.2684       2.2001       0.8587       0.0306
   3790.1250   2753.0671  -2722.0671      91.5193     166.9799      52.9695     591.7192       0.2668       0.2870       2.1682       0.8492       0.0330
   3790.2500   2753.1482  -2722.1482      91.1769     168.9766      53.8877     744.5272       0.2668       0.2931       2.1591       0.8625       0.0432
   3790.3750   2753.2290  -2722.2290      90.9733     169.3697      54.4149     613.0274       0.2662       0.2879       2.1700       0.8935       0.0490
   3790.5000   2753.3101  -2722.3101      91.5742     169.6325      52.9087     420.0583       0.2601       0.2779       2.1872       0.9018       0.0323
   3790.6250   2753.3911  -2722.3911      91.5250     170.9650      50.8574     389.7815       0.2626       0.2760       2.1913       0.9131       0.0095
   3790.7500   2753.4722  -2722.4722      92.3688     171.7221      50.9389     516.7139       0.2644       0.2834       2.1789       0.9129       0.0104
   3790.8750   2753.5530  -2722.5530      93.6994     172.1585      51.4266     634.3850       0.2650       0.2888       2.1710       0.9268       0.0158
   3791.0000   2753.6340  -2722.6340      94.6829     172.4224      51.7453     600.5698       0.2650       0.2874       2.1752       0.9516       0.0194
   3791.1250   2753.7151  -2722.7151      94.9214     172.5592      52.0965     449.6370       0.2654       0.2797       2.1895       0.9739       0.0233
   3791.2500   2753.7961  -2722.7961      95.4523     172.4156      53.7315     375.5477       0.2679       0.2750       2.1977       0.9791       0.0415
   3791.3750   2753.8772  -2722.8772      95.9169     172.4132      54.5025     378.4850       0.2719       0.2752       2.1972       0.9773       0.0500
   3791.5000   2753.9580  -2722.9580      95.6688     172.8683      56.0872     430.8991       0.2730       0.2786       2.1909       0.9682       0.0676
   3791.6250   2754.0391  -2723.0391      95.5128     173.0490      56.6027     483.5401       0.2678       0.2817       2.1853       0.9599       0.0734
   3791.7500   2754.1201  -2723.1201      95.5909     173.0105      56.2796     516.3901       0.2625       0.2834       2.1820       0.9542       0.0600
   3791.8750   2754.2012  -2723.2012      95.5272     173.3397      56.9384     561.7193       0.2669       0.2856       2.1784       0.9548       0.0645
   3792.0000   2754.2822  -2723.2822      95.7791     173.3127      58.3312     656.0025       0.2661       0.2897       2.1710       0.9467       0.0553
   3792.1250   2754.3630  -2723.3630      96.1559     173.4290      60.1835     712.0773       0.2717       0.2919       2.1672       0.9434       0.0623
   3792.2500   2754.4441  -2723.4441      95.7706     173.5336      61.0253     723.1297       0.2682       0.2923       2.1665       0.9439       0.0545
   3792.3750   2754.5251  -2723.5251      95.1660     173.3007      60.8773     654.4357       0.2612       0.2897       2.1712       0.9480       0.0456
   3792.5000   2754.6062  -2723.6062      94.8266     172.8635      60.4452     521.8011       0.2572       0.2837       2.1815       0.9543       0.0487
   3792.6250   2754.6873  -2723.6873      94.4240     173.2960      60.9629     396.5248       0.2530       0.2764       2.1940       0.9589       0.0544
   3792.7500   2754.7681  -2723.7681      93.9253     173.2344      61.4706     370.0092       0.2554       0.2746       2.1964       0.9527       0.0628
   3792.8750   2754.8491  -2723.8491      93.6726     173.0792      60.0005     320.1693       0.2598       0.2708       2.2033       0.9607       0.0787
   3793.0000   2754.9302  -2723.9302      93.6941     172.6942      59.2734     246.4203       0.2701       0.2638       2.2156       0.9731       0.1030
   3793.1250   2755.0112  -2724.0112      93.8806     172.2797      59.8428     185.3776       0.2830       0.2563       2.2290       0.9887       0.1094
   3793.2500   2755.0923  -2724.0923      94.0062     172.0893      60.8378     158.5634       0.2907       0.2522       2.2356       0.9866       0.1204
   3793.3750   2755.1731  -2724.1731      93.5952     171.4994      61.8327     199.3273       0.2883       0.2582       2.2233       0.9513       0.1315
   3793.5000   2755.2542  -2724.2542      92.8655     170.2283      66.7568     315.6187       0.2785       0.2704       2.2008       0.9158       0.1181
   3793.6250   2755.3352  -2724.3352      92.6685     169.1848      67.1727     361.9818       0.2684       0.2740       2.1930       0.8911       0.0916
   3793.7500   2755.4163  -2724.4163      92.1941     168.8678      67.0553     284.8887       0.2570       0.2677       2.2030       0.8839       0.0813
   3793.8750   2755.4971  -2724.4971      91.1982     168.9907      69.1790     159.0190       0.2480       0.2523       2.2294       0.8941       0.0896
   3794.0000   2755.5781  -2724.5781      90.6910     168.2880      71.3044      66.6642       0.2520       0.2293       2.2690       0.9245       0.1441
   3794.1250   2755.6592  -2724.6592      89.4043     166.2447      73.8821      32.3062       0.2645       0.2102       2.3040       0.9740       0.2044
   3794.2500   2755.7402  -2724.7402      88.6091     163.2764      73.2500      20.9990       0.2755       0.1988       2.3241       1.0000       0.2477
   3794.3750   2755.8213  -2724.8213      88.3206     161.3893      72.8179      19.3135       0.2762       0.1966       2.3277       1.0000       0.2534
   3794.5000   2755.9021  -2724.9021      88.3333     160.2138      73.1287      24.0083       0.2699       0.2023       2.3170       0.9751       0.2303
   3794.6250   2755.9832  -2724.9832      88.3749     158.7200      74.1960      35.2132       0.2644       0.2125       2.2980       0.9326       0.2008
   3794.7500   2756.0642  -2725.0642      88.4102     158.1867      79.8859      47.1766       0.2603       0.2202       2.2832       0.8983       0.1785
   3794.8750   2756.1453  -2725.1453      87.5457     157.9998      82.8943      51.9828       0.2487       0.2227       2.2782       0.8864       0.1479
   3795.0000   2756.2263  -2725.2263      87.2324     158.0265      84.4592      48.5834       0.2375       0.2210       2.2816       0.8931       0.1272
   3795.1250   2756.3071  -2725.3071      86.5865     157.5038      85.5058      34.7785       0.2328       0.2121       2.2972       0.9097       0.1336
   3795.2500   2756.3882  -2725.3882      85.5714     156.3602      87.4792      18.9830       0.2387       0.1961       2.3250       0.9331       0.1765
   3795.3750   2756.4692  -2725.4692      85.3153     155.3869      91.8369       8.9042       0.2565       0.1761       2.3598       0.9679       0.2540
   3795.5000   2756.5503  -2725.5503      84.3446     154.5935      91.8525       3.5735       0.2680       0.1520       2.4008       1.0000       0.3229
   3795.6250   2756.6313  -2725.6313      83.3597     153.8186      90.2839       1.9236       0.2761       0.1357       2.4276       1.0000       0.3706
   3795.7500   2756.7122  -2725.7122      81.8053     153.1357      88.6254       1.0732       0.2775       0.1202       2.4528       1.0000       0.4032
   3795.8750   2756.7932  -2725.7932      80.5105     151.3821      88.5100       0.5097       0.2776       0.1006       2.4851       1.0000       0.4279
   3796.0000   2756.8743  -2725.8743      79.9579     147.4070      90.4794       0.0805       0.2805       0.0740       2.5287       1.0000       0.4498
