#------------------------------------------------------------------------------
#
#   Created by  : [OpenWorks] Log Export Utility (LEXP)
#   Created on  : 2007-05-07 11:56:58
#   Project     : NORNE
#   User        : JSE
#   Interpreter : JSE
#
#------------------------------------------------------------------------------
~VERSION INFORMATION
VERS. 2.0 : CWLS Log ASCII Standard - version 2.0
WRAP.  NO : One line per depth step
~WELL INFORMATION
#MNEMONIC   .UNIT                                           VALUE :DESCRIPTION
#------------------------------------------------------------------------------
STRT        .M                                          1300.1250 :START DEPTH
STOP        .M                                          3919.5000 :STOP DEPTH
STEP        .M                                             0.1250 :STEP
NULL        .                                           -999.2500 :NULL VALUE
COMP        .                                             STATOIL :COMPANY
WELL        .                                      	Norne1 	:WELL
FLD         .                                             UNKNOWN :FIELD
LOC         .                                             UNKNOWN :LOCATION
CNTY        .                                             UNKNOWN :COUNTY
STAT        .                                              Norway :STATE
CTRY        .                                              Norway :COUNTRY
SRVC        .                                             UNKNOWN :SERVICE COMPANY
DATE        .                                             UNKNOWN :LOG DATE
UWI         .                                   NO 6608/10-B-4 AH :UNIQUE WELL ID
XCOORD      .                                       457114.155170 :SURFACE X
YCOORD      .                                      7322136.377520 :SURFACE Y
LAT         .                                           66.015409 :LATITUDE
LON         .                                            8.054547 :LONGITUDE
ELEV        .M                                            31.0000 :SURFACE ELEV
ELEV_TYPE   .                                                  KB :ELEV TYPE
~CURVE INFORMATION
#MNEMONIC.UNIT        API CODE       : CURVE DESCRIPTION
#------------------------------------------------------------------------------
DEPTH    .M                          : Measured Depth
TVD      .M                          : True Vertical Depth (TVD)
TVDSS    .M                          : True Vertical Depth (TVDSS)
DTC       .us/ft       UNKNOWN        : DTC:CURVE_LOADER:rC::v0 (auto-composite)
DTS      .us/ft       UNKNOWN        : DTS:CURVE_LOADER:rC::v0 (auto-composite)
GR       .API         UNKNOWN        : GR:CURVE_LOADER:rC::v0 (auto-composite)
KLOGH    .mD          UNKNOWN        : KLOGH:UNKNOWN:rC::v0 (auto-composite)
NPHI     .v/v_decimal UNKNOWN        : NPHI:PETROWORKS:rC:NONE:v2 
PHIF     .v/v_decimal UNKNOWN        : PHIF:UNKNOWN:rC::v0 (auto-composite)
RHOB     .g/cm3       UNKNOWN        : RHOB:PETROWORKS:rC:NONE:v3 
SW       .v/v_decimal UNKNOWN        : SW:UNKNOWN:rC::v0 (auto-composite)
VSH      .v/v_decimal UNKNOWN        : VSH:UNKNOWN:rC::v0 (auto-composite)
~A     DEPTH         TVD       TVDSS           DT          DTS           GR        KLOGH         NPHI         PHIF         RHOB           SW          VSH
# ...
   3692.1250   2700.1208  -2669.1208      99.1248     171.0724      60.5747      55.4604       0.2540       0.2439       2.2054       0.2920       0.1322
   3692.2500   2700.1770  -2669.1770      97.9099     171.8078      60.6303      47.4700       0.2615       0.2412       2.2104       0.2925       0.1329
   3692.3750   2700.2332  -2669.2332      97.5294     170.2623      60.3206      46.9513       0.2640       0.2410       2.2103       0.2856       0.1290
   3692.5000   2700.2896  -2669.2896      96.8900     169.3360      58.7420      50.9039       0.2550       0.2424       2.2070       0.2743       0.1092
   3692.6250   2700.3457  -2669.3457      96.7987     166.4200      58.0953      59.8343       0.2534       0.2452       2.2012       0.2643       0.1012
   3692.7500   2700.4019  -2669.4019      96.9898     163.5726      57.2234      65.7136       0.2498       0.2468       2.1981       0.2612       0.0903
   3692.8750   2700.4583  -2669.4583      97.0607     161.4373      56.3390      67.4599       0.2494       0.2473       2.1975       0.2647       0.0792
   3693.0000   2700.5144  -2669.5144      97.0920     160.2927      56.0438      66.5882       0.2496       0.2470       2.1983       0.2710       0.0756
   3693.1250   2700.5706  -2669.5706      97.2612     159.9382      56.7435      65.7060       0.2459       0.2468       2.1991       0.2771       0.0843
   3693.2500   2700.6270  -2669.6270      96.8944     159.0914      57.1133      64.4262       0.2451       0.2465       2.1999       0.2802       0.0889
   3693.3750   2700.6831  -2669.6831      96.8355     161.0190      58.4074      61.4590       0.2450       0.2457       2.2015       0.2813       0.1051
   3693.5000   2700.7393  -2669.7393      97.3742     163.7903      59.6199      51.6055       0.2495       0.2426       2.2076       0.2912       0.1202
   3693.6250   2700.7954  -2669.7954      97.5578     166.3739      60.7526      40.4697       0.2511       0.2384       2.2162       0.3058       0.1344
   3693.7500   2700.8518  -2669.8518      97.2067     168.1139      61.9337      32.1490       0.2490       0.2344       2.2242       0.3179       0.1400
   3693.8750   2700.9080  -2669.9080      97.3367     168.8114      63.2293      27.8424       0.2528       0.2319       2.2289       0.3208       0.1548
   3694.0000   2700.9641  -2669.9641      97.5639     169.1667      63.4919      29.9823       0.2462       0.2332       2.2265       0.3187       0.1363
   3694.1250   2701.0205  -2670.0205      97.9907     169.4082      63.5828      35.7905       0.2470       0.2363       2.2207       0.3152       0.1323
   3694.2500   2701.0767  -2670.0767      98.3535     169.4562      63.6340      42.5275       0.2475       0.2393       2.2151       0.3126       0.1279
   3694.3750   2701.1328  -2670.1328      99.0498     169.3999      64.0581      49.9321       0.2485       0.2421       2.2099       0.3099       0.1250
   3694.5000   2701.1890  -2670.1890     100.2158     169.3851      64.8926      58.1406       0.2528       0.2447       2.2049       0.3069       0.1314
   3694.6250   2701.2454  -2670.2454     100.1616     169.4975      64.5424      60.1194       0.2577       0.2453       2.2041       0.3105       0.1400
   3694.7500   2701.3015  -2670.3015     100.1549     169.6199      63.0381      67.4942       0.2580       0.2473       2.2002       0.3068       0.1371
   3694.8750   2701.3577  -2670.3577     100.0690     169.6145      62.1861      68.5098       0.2586       0.2475       2.1996       0.3051       0.1378
   3695.0000   2701.4141  -2670.4141     100.1147     169.6616      61.6228      69.1918       0.2586       0.2477       2.1992       0.3037       0.1375
   3695.1250   2701.4702  -2670.4702     100.3106     169.8199      61.1371      71.6763       0.2560       0.2483       2.1980       0.3026       0.1311
   3695.2500   2701.5264  -2670.5264     100.4498     169.9945      60.7443      72.2303       0.2487       0.2485       2.1978       0.3034       0.1137
   3695.3750   2701.5828  -2670.5828     100.3941     170.1799      58.5716      80.3599       0.2438       0.2503       2.1945       0.3047       0.0997
   3695.5000   2701.6389  -2670.6389     100.4916     170.8549      57.6240      89.2607       0.2485       0.2521       2.1913       0.3051       0.0953
   3695.6250   2701.6951  -2670.6951     100.3927     171.2135      56.9107      93.0629       0.2510       0.2528       2.1900       0.3061       0.0864
   3695.7500   2701.7512  -2670.7512     100.1378     171.3626      56.6793      91.6076       0.2540       0.2526       2.1907       0.3085       0.0835
   3695.8750   2701.8076  -2670.8076      99.7887     171.5721      57.0827      86.3835       0.2593       0.2516       2.1926       0.3098       0.0885
   3696.0000   2701.8638  -2670.8638      99.1249     171.7616      57.0983      78.2604       0.2552       0.2498       2.1959       0.3124       0.0887
   3696.1250   2701.9199  -2670.9199      99.6651     171.7808      57.5474      85.9253       0.2589       0.2515       2.1928       0.3112       0.0943
   3696.2500   2701.9763  -2670.9763      99.9832     171.8078      58.0126      91.3875       0.2521       0.2525       2.1908       0.3093       0.1002
   3696.3750   2702.0325  -2671.0325     100.1637     171.8693      58.6831      92.3592       0.2453       0.2527       2.1904       0.3090       0.0983
   3696.5000   2702.0886  -2671.0886     100.2496     171.9057      59.5406      88.7425       0.2430       0.2520       2.1917       0.3099       0.0946
   3696.6250   2702.1450  -2671.1450     100.2204     171.8271      60.4002      82.8611       0.2440       0.2508       2.1941       0.3134       0.0990
   3696.7500   2702.2012  -2671.2012     100.3205     171.8050      61.2812      79.1801       0.2563       0.2500       2.1958       0.3166       0.1283
   3696.8750   2702.2573  -2671.2573     100.2197     171.6479      58.8254      80.6594       0.2608       0.2504       2.1953       0.3181       0.1103
   3697.0000   2702.3135  -2671.3135     100.1174     171.6226      57.9202      75.3346       0.2599       0.2492       2.1976       0.3213       0.0990
   3697.1250   2702.3699  -2671.3699     100.1249     171.6190      58.1422      64.9298       0.2538       0.2466       2.2024       0.3233       0.1018
   3697.2500   2702.4260  -2671.4260     100.2033     171.5379      58.9205      55.4229       0.2462       0.2439       2.2077       0.3273       0.1115
   3697.3750   2702.4822  -2671.4822     100.0680     171.4790      61.8324      50.1907       0.2470       0.2421       2.2110       0.3299       0.1210
   3697.5000   2702.5386  -2671.5386      99.7988     171.2738      61.6183      56.6551       0.2511       0.2442       2.2069       0.3266       0.1283
   3697.6250   2702.5947  -2671.5947      99.6830     171.0675      60.7216      62.0691       0.2602       0.2458       2.2041       0.3270       0.1340
   3697.7500   2702.6509  -2671.6509      99.6403     170.5960      59.6225      59.6863       0.2659       0.2451       2.2057       0.3328       0.1203
   3697.8750   2702.7073  -2671.7073      99.6441     170.0386      59.2576      52.0811       0.2651       0.2428       2.2104       0.3386       0.1157
   3698.0000   2702.7634  -2671.7634      99.6806     169.7636      60.3451      47.7424       0.2600       0.2413       2.2132       0.3401       0.1293
   3698.1250   2702.8196  -2671.8196      99.5690     169.6249      61.2258      59.9183       0.2600       0.2452       2.2058       0.3361       0.1403
   3698.2500   2702.8757  -2671.8757      99.6456     169.5822      61.4236      68.7573       0.2556       0.2476       2.2013       0.3340       0.1309
   3698.3750   2702.9321  -2671.9321      99.6907     169.3092      61.5410      64.8441       0.2518       0.2466       2.2033       0.3360       0.1251
   3698.5000   2702.9883  -2671.9883      99.6054     169.1071      61.9295      53.4713       0.2489       0.2432       2.2097       0.3417       0.1227
