#------------------------------------------------------------------------------
#
#   Created by  : [OpenWorks] Log Export Utility (LEXP)
#   Created on  : 2007-05-07 11:56:58
#   Project     : NORNE
#   User        : JSE
#   Interpreter : JSE
#
#------------------------------------------------------------------------------
~VERSION INFORMATION
VERS. 2.0 : CWLS Log ASCII Standard - version 2.0
WRAP.  NO : One line per depth step
~WELL INFORMATION
#MNEMONIC   .UNIT                                           VALUE :DESCRIPTION
#------------------------------------------------------------------------------
STRT        .M                                          1300.1250 :START DEPTH
STOP        .M                                          3919.5000 :STOP DEPTH
STEP        .M                                             0.1250 :STEP
NULL        .                                           -999.2500 :NULL VALUE
COMP        .                                             STATOIL :COMPANY
WELL        .                                      	Norne1 	:WELL
FLD         .                                             UNKNOWN :FIELD
LOC         .                                             UNKNOWN :LOCATION
CNTY        .                                             UNKNOWN :COUNTY
STAT        .                                              Norway :STATE
CTRY        .                                              Norway :COUNTRY
SRVC        .                                             UNKNOWN :SERVICE COMPANY
DATE        .                                             UNKNOWN :LOG DATE
UWI         .                                   NO 6608/10-B-4 AH :UNIQUE WELL ID
XCOORD      .                                       457114.155170 :SURFACE X
YCOORD      .                                      7322136.377520 :SURFACE Y
LAT         .                                           66.015409 :LATITUDE
LON         .                                            8.054547 :LONGITUDE
ELEV        .M                                            31.0000 :SURFACE ELEV
ELEV_TYPE   .                                                  KB :ELEV TYPE
~CURVE INFORMATION
#MNEMONIC.UNIT        API CODE       : CURVE DESCRIPTION
#------------------------------------------------------------------------------
DEPTH    .M                          : Measured Depth
TVD      .M                          : True Vertical Depth (TVD)
TVDSS    .M                          : True Vertical Depth (TVDSS)
DTC       .us/ft       UNKNOWN        : DTC:CURVE_LOADER:rC::v0 (auto-composite)
DTS      .us/ft       UNKNOWN        : DTS:CURVE_LOADER:rC::v0 (auto-composite)
GR       .API         UNKNOWN        : GR:CURVE_LOADER:rC::v0 (auto-composite)
KLOGH    .mD          UNKNOWN        : KLOGH:UNKNOWN:rC::v0 (auto-composite)
NPHI     .v/v_decimal UNKNOWN        : NPHI:PETROWORKS:rC:NONE:v2 
PHIF     .v/v_decimal UNKNOWN        : PHIF:UNKNOWN:rC::v0 (auto-composite)
RHOB     .g/cm3       UNKNOWN        : RHOB:PETROWORKS:rC:NONE:v3 
SW       .v/v_decimal UNKNOWN        : SW:UNKNOWN:rC::v0 (auto-composite)
VSH      .v/v_decimal UNKNOWN        : VSH:UNKNOWN:rC::v0 (auto-composite)
~A     DEPTH         TVD       TVDSS           DT          DTS           GR        KLOGH         NPHI         PHIF         RHOB           SW          VSH
# ...
   3588.1250   2660.2527  -2629.2527      95.2449     158.1891      57.7668     994.7305       0.2572       0.2901       2.1270       0.1805       0.0599
   3588.2500   2660.2922  -2629.2922      94.6221     157.6779      59.1766     994.3527       0.2523       0.2901       2.1270       0.1802       0.0501
   3588.3750   2660.3320  -2629.3320      94.5920     157.7647      58.3789    1005.4006       0.2558       0.2904       2.1262       0.1789       0.0566
   3588.5000   2660.3716  -2629.3716      94.8955     157.7675      57.9091    1007.6821       0.2582       0.2905       2.1260       0.1776       0.0611
   3588.6250   2660.4114  -2629.4114      95.4565     157.8374      57.6271     994.0733       0.2623       0.2901       2.1268       0.1775       0.0701
   3588.7500   2660.4509  -2629.4509      96.1366     158.0722      57.1973     972.4545       0.2681       0.2893       2.1282       0.1786       0.0720
   3588.8750   2660.4907  -2629.4907      96.7568     158.3902      56.4643     959.2766       0.2717       0.2889       2.1291       0.1798       0.0646
   3589.0000   2660.5303  -2629.5303      97.4026     158.0694      56.9444     921.9718       0.2668       0.2876       2.1316       0.1806       0.0694
   3589.1250   2660.5698  -2629.5698      97.8843     158.0745      57.4239     947.4505       0.2667       0.2885       2.1299       0.1803       0.0742
   3589.2500   2660.6096  -2629.6096      97.7177     157.8354      58.2142    1010.5251       0.2650       0.2906       2.1259       0.1792       0.0745
   3589.3750   2660.6492  -2629.6492      97.8575     157.1427      59.1941    1135.5270       0.2666       0.2944       2.1187       0.1771       0.0709
   3589.5000   2660.6890  -2629.6890      98.6340     154.8044      59.1925    1339.1829       0.2737       0.2997       2.1085       0.1742       0.0754
   3589.6250   2660.7285  -2629.7285      97.6707     146.8511      54.8266    1528.6693       0.2721       0.3040       2.1003       0.1719       0.0483
   3589.7500   2660.7683  -2629.7683      97.9953     145.4942      54.5989    1575.3929       0.2673       0.3049       2.0984       0.1712       0.0460
   3589.8750   2660.8079  -2629.8079      97.6497     141.5276      54.9508    1553.5319       0.2599       0.3045       2.0992       0.1706       0.0390
   3590.0000   2660.8477  -2629.8477      97.2519     137.3895      55.4501    1554.5522       0.2547       0.3045       2.0991       0.1701       0.0286
   3590.1250   2660.8872  -2629.8872      94.2110     135.5375      56.6861    1532.7667       0.2545       0.3041       2.1000       0.1702       0.0291
   3590.2500   2660.9268  -2629.9268      85.2785     137.4870      59.1170    1363.9346       0.2586       0.3003       2.1072       0.1717       0.0442
   3590.3750   2660.9666  -2629.9666      82.1540     142.3510      56.6617    1089.3545       0.2545       0.2930       2.1211       0.1758       0.0493
   3590.5000   2661.0061  -2630.0061      80.1046     146.0018      54.7726     656.6900       0.2519       0.2766       2.1486       0.1317       0.0477
   3590.6250   2661.0459  -2630.0459      77.2481     147.7608      54.6666     387.8281       0.2409       0.2596       2.1813       0.1408       0.0467
   3590.7500   2661.0854  -2630.0854      74.5855     148.2278      55.4803     209.3566       0.2239       0.2397       2.2196       0.1532       0.0548
   3590.8750   2661.1252  -2630.1252      73.4402     148.0464      56.6605     100.5556       0.2047       0.2160       2.2651       0.1703       0.0666
   3591.0000   2661.1648  -2630.1648      74.3980     147.2610      59.2317      42.6386       0.1840       0.1882       2.3190       0.1966       0.0889
   3591.1250   2661.2046  -2630.2046      73.7017     146.4769      59.4414      14.6681       0.1751       0.1537       2.3848       0.2426       0.0944
   3591.2500   2661.2441  -2630.2441      82.3643     146.8591      59.2636       4.8789       0.1667       0.1181       2.4531       0.3161       0.0926
   3591.3750   2661.2839  -2630.2839      81.4675     148.5572      58.9704       1.9299       0.1603       0.0881       2.5107       0.4247       0.0897
   3591.5000   2661.3235  -2630.3235      73.7289     148.9001      59.2641       1.0320       0.1535       0.0679       2.5495       0.5513       0.0926
   3591.6250   2661.3630  -2630.3630      72.7725     144.7544      60.3833       0.7737       0.1442       0.0586       2.5667       0.5936       0.1038
   3591.7500   2661.4028  -2630.4028      74.2339     139.2496      58.8549       0.8066       0.1458       0.0599       2.5643       0.5882       0.0885
   3591.8750   2661.4424  -2630.4424      73.1899     134.9141      58.5761       1.0400       0.1431       0.0681       2.5493       0.5645       0.0858
   3592.0000   2661.4822  -2630.4822      74.4045     129.0921      58.4446       1.6190       0.1475       0.0824       2.5219       0.4666       0.0844
   3592.1250   2661.5217  -2630.5217      76.0589     123.9578      57.7559       2.8188       0.1554       0.1004       2.4872       0.3733       0.0776
   3592.2500   2661.5615  -2630.5615      76.3743     121.1777      56.3200       4.7083       0.1618       0.1170       2.4549       0.3068       0.0632
   3592.3750   2661.6011  -2630.6011      75.4570     120.2773      54.6361       6.1311       0.1649       0.1255       2.4382       0.2755       0.0464
   3592.5000   2661.6409  -2630.6409      75.2281     118.0742      54.3340       5.0685       0.1583       0.1194       2.4497       0.2792       0.0433
   3592.6250   2661.6804  -2630.6804      73.9040     115.6423      53.7972       3.0859       0.1491       0.1033       2.4801       0.3102       0.0380
   3592.7500   2661.7202  -2630.7202      71.8889     124.3581      53.2013       1.8134       0.1450       0.0861       2.5130       0.3676       0.0320
   3592.8750   2661.7598  -2630.7598      69.6161     135.5377      52.9285       1.1926       0.1435       0.0726       2.5392       0.4438       0.0293
   3593.0000   2661.7993  -2630.7993      67.8235     136.6780      53.1732       0.9620       0.1406       0.0656       2.5528       0.5093       0.0317
   3593.1250   2661.8391  -2630.8391      68.4742     138.7047      53.0938       1.1030       0.1447       0.0700       2.5446       0.4929       0.0309
   3593.2500   2661.8787  -2630.8787      69.6412     141.6044      54.1121       1.6857       0.1495       0.0838       2.5183       0.4118       0.0411
   3593.3750   2661.9185  -2630.9185      71.3636     141.0173      55.2234       3.2734       0.1625       0.1052       2.4772       0.3300       0.0522
   3593.5000   2661.9580  -2630.9580      78.2897     141.7817      56.4110       7.9510       0.1773       0.1339       2.4221       0.2597       0.0641
   3593.6250   2661.9978  -2630.9978      88.5638     145.3795      57.4465      24.8111       0.1913       0.1707       2.3514       0.2028       0.0745
   3593.7500   2662.0374  -2631.0374      93.0998     148.4804      57.8612     104.1917       0.2076       0.2171       2.2624       0.1598       0.0786
   3593.8750   2662.0771  -2631.0771      94.4310     155.5460      58.7758     385.6993       0.2207       0.2594       2.1813       0.1343       0.0378
   3594.0000   2662.1167  -2631.1167      96.5769     159.2341      59.5469     953.4698       0.2332       0.2887       2.1251       0.1209       0.0112
   3594.1250   2662.1562  -2631.1562      96.9748     162.6103      60.2879    1463.2555       0.2440       0.3026       2.0985       0.1164       0.0092
   3594.2500   2662.1960  -2631.1960      96.1070     166.1948      62.0189    1576.8483       0.2506       0.3050       2.0939       0.1155       0.0215
   3594.3750   2662.2356  -2631.2356      95.3640     169.4512      64.9769    1468.9055       0.2528       0.3027       2.0983       0.1160       0.0301
   3594.5000   2662.2754  -2631.2754      95.3459     171.5361      66.3205    1438.4344       0.2577       0.3020       2.0999       0.1206       0.0410
