#------------------------------------------------------------------------------
#
#   Created by  : [OpenWorks] Log Export Utility (LEXP)
#   Created on  : 2007-05-07 11:56:58
#   Project     : NORNE
#   User        : JSE
#   Interpreter : JSE
#
#------------------------------------------------------------------------------
~VERSION INFORMATION
VERS. 2.0 : CWLS Log ASCII Standard - version 2.0
WRAP.  NO : One line per depth step
~WELL INFORMATION
#MNEMONIC   .UNIT                                           VALUE :DESCRIPTION
#------------------------------------------------------------------------------
STRT        .M                                          1300.1250 :START DEPTH
STOP        .M                                          3919.5000 :STOP DEPTH
STEP        .M                                             0.1250 :STEP
NULL        .                                           -999.2500 :NULL VALUE
COMP        .                                             STATOIL :COMPANY
WELL        .                                      	Norne1 	:WELL
FLD         .                                             UNKNOWN :FIELD
LOC         .                                             UNKNOWN :LOCATION
CNTY        .                                             UNKNOWN :COUNTY
STAT        .                                              Norway :STATE
CTRY        .                                              Norway :COUNTRY
SRVC        .                                             UNKNOWN :SERVICE COMPANY
DATE        .                                             UNKNOWN :LOG DATE
UWI         .                                   NO 6608/10-B-4 AH :UNIQUE WELL ID
XCOORD      .                                       457114.155170 :SURFACE X
YCOORD      .                                      7322136.377520 :SURFACE Y
LAT         .                                           66.015409 :LATITUDE
LON         .                                            8.054547 :LONGITUDE
ELEV        .M                                            31.0000 :SURFACE ELEV
ELEV_TYPE   .                                                  KB :ELEV TYPE
~CURVE INFORMATION
#MNEMONIC.UNIT        API CODE       : CURVE DESCRIPTION
#------------------------------------------------------------------------------
DEPTH    .M                          : Measured Depth
TVD      .M                          : True Vertical Depth (TVD)
TVDSS    .M                          : True Vertical Depth (TVDSS)
DTC       .us/ft       UNKNOWN        : DTC:CURVE_LOADER:rC::v0 (auto-composite)
DTS      .us/ft       UNKNOWN        : DTS:CURVE_LOADER:rC::v0 (auto-composite)
GR       .API         UNKNOWN        : GR:CURVE_LOADER:rC::v0 (auto-composite)
KLOGH    .mD          UNKNOWN        : KLOGH:UNKNOWN:rC::v0 (auto-composite)
NPHI     .v/v_decimal UNKNOWN        : NPHI:PETROWORKS:rC:NONE:v2 
PHIF     .v/v_decimal UNKNOWN        : PHIF:UNKNOWN:rC::v0 (auto-composite)
RHOB     .g/cm3       UNKNOWN        : RHOB:PETROWORKS:rC:NONE:v3 
SW       .v/v_decimal UNKNOWN        : SW:UNKNOWN:rC::v0 (auto-composite)
VSH      .v/v_decimal UNKNOWN        : VSH:UNKNOWN:rC::v0 (auto-composite)
~A     DEPTH         TVD       TVDSS           DT          DTS           GR        KLOGH         NPHI         PHIF         RHOB           SW          VSH
# ...
   3146.1250   2557.1992  -2526.1992      88.1950     156.5620     121.1216    -999.2500       0.4365    -999.2500       2.9421    -999.2500    -999.2500
   3146.2500   2557.2454  -2526.2454      88.1950     156.5620     122.1370    -999.2500       0.4375    -999.2500       2.9536    -999.2500    -999.2500
   3146.3750   2557.2917  -2526.2917      88.1950     156.5620     125.3954    -999.2500       0.4400    -999.2500       2.9828    -999.2500    -999.2500
   3146.5000   2557.3379  -2526.3379      88.1950     156.5620     130.3330    -999.2500       0.4437    -999.2500       3.0015    -999.2500    -999.2500
   3146.6250   2557.3843  -2526.3843      88.1950     156.5620     135.0942    -999.2500       0.4495    -999.2500       2.9818    -999.2500    -999.2500
   3146.7500   2557.4304  -2526.4304      88.1950     156.5620     137.0277    -999.2500       0.4634    -999.2500       2.9358    -999.2500    -999.2500
   3146.8750   2557.4768  -2526.4768      88.1950     156.5620     138.9612    -999.2500       0.4772    -999.2500       2.8897    -999.2500    -999.2500
   3147.0000   2557.5232  -2526.5232      88.1950     156.5620     142.1115    -999.2500       0.4858    -999.2500       2.6455    -999.2500    -999.2500
   3147.1250   2557.5693  -2526.5693      88.1950     156.5620     145.5772    -999.2500       0.4802    -999.2500       2.5010    -999.2500    -999.2500
   3147.2500   2557.6157  -2526.6157      88.1950     156.5620     148.5310    -999.2500       0.4714    -999.2500       2.5075    -999.2500    -999.2500
   3147.3750   2557.6619  -2526.6619      88.1950     156.5620     150.4150    -999.2500       0.4813    -999.2500       2.5006    -999.2500    -999.2500
   3147.5000   2557.7083  -2526.7083      88.1950     156.5620     150.8843    -999.2500       0.4873    -999.2500       2.5082    -999.2500    -999.2500
   3147.6250   2557.7544  -2526.7544      88.1950     156.5620     151.3537    -999.2500       0.4933    -999.2500       2.5158    -999.2500    -999.2500
   3147.7500   2557.8008  -2526.8008      88.1950     156.5620     147.9314    -999.2500       0.4770    -999.2500       2.4982    -999.2500    -999.2500
   3147.8750   2557.8472  -2526.8472      88.1950     156.5620     144.5538    -999.2500       0.4549    -999.2500       2.4870    -999.2500    -999.2500
   3148.0000   2557.8933  -2526.8933      88.1950     156.5620     144.1721    -999.2500       0.4433    -999.2500       2.5000    -999.2500    -999.2500
   3148.1250   2557.9397  -2526.9397      88.1950     156.5620     143.9474    -999.2500       0.4378    -999.2500       2.4998    -999.2500    -999.2500
   3148.2500   2557.9858  -2526.9858      88.1950     156.5620     143.7287    -999.2500       0.4324    -999.2500       2.4996    -999.2500    -999.2500
   3148.3750   2558.0322  -2527.0322      88.1950     156.5620     143.2663    -999.2500       0.4506    -999.2500       2.4810    -999.2500    -999.2500
   3148.5000   2558.0784  -2527.0784      88.1950     156.5620     140.9009    -999.2500       0.4609    -999.2500       2.4745    -999.2500    -999.2500
   3148.6250   2558.1248  -2527.1248      88.1950     156.5620     138.5403    -999.2500       0.4580    -999.2500       2.4787    -999.2500    -999.2500
   3148.7500   2558.1711  -2527.1711      88.1950     156.5620     139.2696    -999.2500       0.4541    -999.2500       2.4746    -999.2500    -999.2500
   3148.8750   2558.2173  -2527.2173      88.1950     156.5620     139.9989    -999.2500       0.4502    -999.2500       2.4705    -999.2500    -999.2500
   3149.0000   2558.2637  -2527.2637      88.1950     156.5620     143.0499    -999.2500       0.4345    -999.2500       2.4700    -999.2500    -999.2500
   3149.1250   2558.3098  -2527.3098      88.1950     156.5620     140.5717    -999.2500       0.4225    -999.2500       2.4755    -999.2500    -999.2500
   3149.2500   2558.3562  -2527.3562      88.1950     156.5620     138.5816    -999.2500       0.4222    -999.2500       2.4689    -999.2500    -999.2500
   3149.3750   2558.4026  -2527.4026      88.1950     156.5620     140.4751    -999.2500       0.4328    -999.2500       2.4500    -999.2500    -999.2500
   3149.5000   2558.4487  -2527.4487      88.1950     156.5620     141.9109    -999.2500       0.4422    -999.2500       2.4500    -999.2500    -999.2500
   3149.6250   2558.4951  -2527.4951      88.1950     156.5620     143.3866    -999.2500       0.4518    -999.2500       2.4500    -999.2500    -999.2500
   3149.7500   2558.5413  -2527.5413      88.1950     156.5620     143.1273    -999.2500       0.4829    -999.2500       2.4695    -999.2500    -999.2500
   3149.8750   2558.5876  -2527.5876      88.1950     156.5620     141.6827    -999.2500       0.5039    -999.2500       2.4800    -999.2500    -999.2500
   3150.0000   2558.6338  -2527.6338      88.1950     156.5620     140.1230    -999.2500       0.5083    -999.2500       2.4800    -999.2500    -999.2500
   3150.1250   2558.6802  -2527.6802      88.1950     156.5620     139.3448    -999.2500       0.5032    -999.2500       2.4801    -999.2500    -999.2500
   3150.2500   2558.7266  -2527.7266      88.1950     156.5620     138.5667    -999.2500       0.4982    -999.2500       2.4803    -999.2500    -999.2500
   3150.3750   2558.7727  -2527.7727      88.1950     156.5620     144.9060    -999.2500       0.4804    -999.2500       2.4801    -999.2500    -999.2500
   3150.5000   2558.8191  -2527.8191      88.1950     156.5620     145.6373    -999.2500       0.4723    -999.2500       2.4687    -999.2500    -999.2500
   3150.6250   2558.8652  -2527.8652      88.1950     156.5620     144.0521    -999.2500       0.4705    -999.2500       2.4641    -999.2500    -999.2500
   3150.7500   2558.9116  -2527.9116      88.1950     156.5620     142.8696    -999.2500       0.4704    -999.2500       2.4722    -999.2500    -999.2500
   3150.8750   2558.9578  -2527.9578      88.1950     156.5620     141.7366    -999.2500       0.4703    -999.2500       2.4800    -999.2500    -999.2500
   3151.0000   2559.0042  -2528.0042      88.1950     156.5620     141.7583    -999.2500       0.4709    -999.2500       2.4800    -999.2500    -999.2500
   3151.1250   2559.0505  -2528.0505      88.1950     156.5620     140.1293    -999.2500       0.4546    -999.2500       2.4935    -999.2500    -999.2500
   3151.2500   2559.0967  -2528.0967      88.1950     156.5620     140.2260    -999.2500       0.4494    -999.2500       2.5003    -999.2500    -999.2500
   3151.3750   2559.1431  -2528.1431      88.1950     156.5620     141.0563    -999.2500       0.4538    -999.2500       2.5052    -999.2500    -999.2500
   3151.5000   2559.1892  -2528.1892      88.1950     156.5620     140.8635    -999.2500       0.4577    -999.2500       2.5169    -999.2500    -999.2500
   3151.6250   2559.2356  -2528.2356      88.1950     156.5620     140.6707    -999.2500       0.4616    -999.2500       2.5286    -999.2500    -999.2500
   3151.7500   2559.2817  -2528.2817      88.1950     156.5620     134.9055    -999.2500       0.4539    -999.2500       2.5608    -999.2500    -999.2500
   3151.8750   2559.3281  -2528.3281      88.1950     156.5620     130.9611    -999.2500       0.4460    -999.2500       2.5994    -999.2500    -999.2500
   3152.0000   2559.3745  -2528.3745      88.1950     156.5620     129.0984    -999.2500       0.4412    -999.2500       2.6156    -999.2500    -999.2500
   3152.1250   2559.4207  -2528.4207      88.1950     156.5620     128.4813    -999.2500       0.4390    -999.2500       2.6078    -999.2500    -999.2500
   3152.2500   2559.4670  -2528.4670      88.1950     156.5620     128.2242    -999.2500       0.4393    -999.2500       2.6037    -999.2500    -999.2500
   3152.3750   2559.5132  -2528.5132      88.1950     156.5620     132.8723    -999.2500       0.4729    -999.2500       2.6526    -999.2500    -999.2500
   3152.5000   2559.5596  -2528.5596      88.1950     156.5620     133.6712    -999.2500       0.4653    -999.2500       2.5895    -999.2500    -999.2500
