#------------------------------------------------------------------------------
#
#   Created by  : [OpenWorks] Log Export Utility (LEXP)
#   Created on  : 2007-05-07 11:56:58
#   Project     : NORNE
#   User        : JSE
#   Interpreter : JSE
#
#------------------------------------------------------------------------------
~VERSION INFORMATION
VERS. 2.0 : CWLS Log ASCII Standard - version 2.0
WRAP.  NO : One line per depth step
~WELL INFORMATION
#MNEMONIC   .UNIT                                           VALUE :DESCRIPTION
#------------------------------------------------------------------------------
STRT        .M                                          1300.1250 :START DEPTH
STOP        .M                                          3919.5000 :STOP DEPTH
STEP        .M                                             0.1250 :STEP
NULL        .                                           -999.2500 :NULL VALUE
COMP        .                                             STATOIL :COMPANY
WELL        .                                      	Norne1 	:WELL
FLD         .                                             UNKNOWN :FIELD
LOC         .                                             UNKNOWN :LOCATION
CNTY        .                                             UNKNOWN :COUNTY
STAT        .                                              Norway :STATE
CTRY        .                                              Norway :COUNTRY
SRVC        .                                             UNKNOWN :SERVICE COMPANY
DATE        .                                             UNKNOWN :LOG DATE
UWI         .                                   NO 6608/10-B-4 AH :UNIQUE WELL ID
XCOORD      .                                       457114.155170 :SURFACE X
YCOORD      .                                      7322136.377520 :SURFACE Y
LAT         .                                           66.015409 :LATITUDE
LON         .                                            8.054547 :LONGITUDE
ELEV        .M                                            31.0000 :SURFACE ELEV
ELEV_TYPE   .                                                  KB :ELEV TYPE
~CURVE INFORMATION
#MNEMONIC.UNIT        API CODE       : CURVE DESCRIPTION
#------------------------------------------------------------------------------
DEPTH    .M                          : Measured Depth
TVD      .M                          : True Vertical Depth (TVD)
TVDSS    .M                          : True Vertical Depth (TVDSS)
DTC       .us/ft       UNKNOWN        : DTC:CURVE_LOADER:rC::v0 (auto-composite)
DTS      .us/ft       UNKNOWN        : DTS:CURVE_LOADER:rC::v0 (auto-composite)
GR       .API         UNKNOWN        : GR:CURVE_LOADER:rC::v0 (auto-composite)
KLOGH    .mD          UNKNOWN        : KLOGH:UNKNOWN:rC::v0 (auto-composite)
NPHI     .v/v_decimal UNKNOWN        : NPHI:PETROWORKS:rC:NONE:v2 
PHIF     .v/v_decimal UNKNOWN        : PHIF:UNKNOWN:rC::v0 (auto-composite)
RHOB     .g/cm3       UNKNOWN        : RHOB:PETROWORKS:rC:NONE:v3 
SW       .v/v_decimal UNKNOWN        : SW:UNKNOWN:rC::v0 (auto-composite)
VSH      .v/v_decimal UNKNOWN        : VSH:UNKNOWN:rC::v0 (auto-composite)
~A     DEPTH         TVD       TVDSS           DT          DTS           GR        KLOGH         NPHI         PHIF         RHOB           SW          VSH
# ...
   3542.6250   2647.5818  -2616.5818     104.0279     171.7935      50.7684     661.5248       0.2614       0.2769       2.1471       0.1178       0.0077
   3542.7500   2647.6140  -2616.6140     104.0245     172.2210      50.0398     712.0018       0.2663       0.2793       2.1427       0.1178       0.0010
   3542.8750   2647.6462  -2616.6462     104.0671     172.3500      49.6226     763.3481       0.2677       0.2815       2.1384       0.1173       0.0010
   3543.0000   2647.6785  -2616.6785     104.0447     172.4386      49.1977     792.7140       0.2587       0.2827       2.1360       0.1161       0.0010
   3543.1250   2647.7107  -2616.7107     103.9299     172.5083      48.5976     802.3610       0.2505       0.2831       2.1351       0.1150       0.0010
   3543.2500   2647.7429  -2616.7429     104.3864     172.5123      48.9847     830.0374       0.2490       0.2842       2.1330       0.1137       0.0010
   3543.3750   2647.7751  -2616.7751     105.0131     173.0251      49.5122     870.2401       0.2495       0.2858       2.1300       0.1129       0.0010
   3543.5000   2647.8074  -2616.8074     105.6215     173.8208      50.0899     922.2887       0.2500       0.2876       2.1264       0.1123       0.0010
   3543.6250   2647.8394  -2616.8394     106.0994     174.4896      50.8307     980.9120       0.2495       0.2896       2.1226       0.1114       0.0083
   3543.7500   2647.8716  -2616.8716     106.2955     175.0615      51.5715    1017.7292       0.2462       0.2908       2.1201       0.1087       0.0157
   3543.8750   2647.9038  -2616.9038     106.4785     175.7724      52.5266    1154.2819       0.2491       0.2949       2.1123       0.1065       0.0253
   3544.0000   2647.9360  -2616.9360     106.5960     176.2145      54.7512    1305.9872       0.2470       0.2989       2.1047       0.1058       0.0228
   3544.1250   2647.9683  -2616.9683     106.4349     176.4310      55.7870    1453.1401       0.2425       0.3023       2.0981       0.1055       0.0068
   3544.2500   2648.0005  -2617.0005     106.0071     176.5191      55.1949    1547.3746       0.2385       0.3044       2.0942       0.1051       0.0010
   3544.3750   2648.0327  -2617.0327     105.5524     176.5719      54.2490    1530.2747       0.2368       0.3040       2.0949       0.1055       0.0010
   3544.5000   2648.0647  -2617.0647     105.3103     176.5235      48.3382    1551.4916       0.2344       0.3044       2.0941       0.1057       0.0010
   3544.6250   2648.0969  -2617.0969     104.8740     176.6312      47.3161    1470.0640       0.2333       0.3027       2.0975       0.1063       0.0010
   3544.7500   2648.1292  -2617.1292     104.7819     176.7046      47.5244    1308.9789       0.2345       0.2990       2.1047       0.1074       0.0010
   3544.8750   2648.1614  -2617.1614     104.8423     176.7454      47.9404    1143.7064       0.2440       0.2946       2.1130       0.1087       0.0010
   3545.0000   2648.1936  -2617.1936     104.7462     176.7623      48.1145    1022.9105       0.2605       0.2910       2.1199       0.1099       0.0010
   3545.1250   2648.2258  -2617.2258     104.4328     176.6466      47.2519     945.7953       0.2629       0.2884       2.1248       0.1116       0.0010
   3545.2500   2648.2581  -2617.2581     104.0717     176.7734      48.4981     956.0266       0.2614       0.2888       2.1242       0.1118       0.0010
   3545.3750   2648.2903  -2617.2903     104.0862     176.8396      50.1680     922.1474       0.2530       0.2876       2.1265       0.1125       0.0017
   3545.5000   2648.3223  -2617.3223     104.2299     176.6607      51.3340     925.3453       0.2480       0.2877       2.1263       0.1126       0.0133
   3545.6250   2648.3545  -2617.3545     104.4490     176.2832      51.9505     976.2469       0.2495       0.2895       2.1230       0.1125       0.0195
   3545.7500   2648.3867  -2617.3867     104.8741     175.9182      52.7082    1031.3550       0.2542       0.2912       2.1196       0.1125       0.0271
   3545.8750   2648.4189  -2617.4189     105.7472     175.7237      54.8302    1101.4688       0.2567       0.2934       2.1155       0.1114       0.0483
   3546.0000   2648.4512  -2617.4512     106.0299     175.4504      53.4633    1177.1305       0.2620       0.2955       2.1114       0.1109       0.0346
   3546.1250   2648.4834  -2617.4834     106.2430     175.7219      53.1906    1246.9027       0.2629       0.2974       2.1079       0.1103       0.0319
   3546.2500   2648.5156  -2617.5156     106.3477     176.1948      53.7526    1329.8960       0.2591       0.2995       2.1039       0.1097       0.0375
   3546.3750   2648.5476  -2617.5476     106.2630     176.4618      54.1466    1415.5350       0.2544       0.3015       2.1000       0.1091       0.0355
   3546.5000   2648.5798  -2617.5798     106.0390     176.4140      53.9315    1415.7310       0.2560       0.3015       2.1000       0.1092       0.0388
   3546.6250   2648.6121  -2617.6121     105.5274     177.0450      53.6648    1343.4301       0.2495       0.2998       2.1033       0.1100       0.0262
   3546.7500   2648.6443  -2617.6443     105.4353     176.8811      53.5554    1273.8436       0.2512       0.2981       2.1066       0.1104       0.0354
   3546.8750   2648.6765  -2617.6765     105.2883     175.9969      53.4906    1181.2244       0.2480       0.2956       2.1112       0.1109       0.0306
   3547.0000   2648.7087  -2617.7087     104.9523     175.1595      52.5150    1066.8634       0.2417       0.2923       2.1175       0.1118       0.0232
   3547.1250   2648.7410  -2617.7410     104.5133     175.1768      49.9835     945.8945       0.2418       0.2884       2.1250       0.1135       0.0010
   3547.2500   2648.7732  -2617.7732     104.0374     175.2006      49.0007     829.0961       0.2483       0.2842       2.1332       0.1155       0.0010
   3547.3750   2648.8052  -2617.8052     104.0107     174.9215      47.6484     789.7850       0.2549       0.2826       2.1362       0.1164       0.0010
   3547.5000   2648.8374  -2617.8374     103.9795     174.9102      47.0964     787.2479       0.2632       0.2825       2.1364       0.1167       0.0010
   3547.6250   2648.8696  -2617.8696     103.6820     175.1075      46.9369     807.4275       0.2631       0.2833       2.1349       0.1163       0.0010
   3547.7500   2648.9019  -2617.9019     103.2074     175.3609      46.9415     832.0406       0.2560       0.2843       2.1330       0.1159       0.0010
   3547.8750   2648.9341  -2617.9341     103.0687     175.5367      47.4652     833.9655       0.2599       0.2844       2.1330       0.1181       0.0010
   3548.0000   2648.9663  -2617.9663     103.2681     175.4817      48.4146     824.6611       0.2566       0.2840       2.1338       0.1199       0.0010
   3548.1250   2648.9985  -2617.9985     103.3295     175.6156      49.2309     814.4338       0.2600       0.2836       2.1347       0.1207       0.0010
   3548.2500   2649.0305  -2618.0305     103.6967     175.9770      50.0161     822.7641       0.2591       0.2839       2.1340       0.1207       0.0010
   3548.3750   2649.0627  -2618.0627     104.4977     176.3282      51.2288     869.6794       0.2587       0.2857       2.1306       0.1199       0.0123
   3548.5000   2649.0950  -2618.0950     105.4301     176.4297      53.1406     966.4018       0.2649       0.2891       2.1240       0.1183       0.0314
   3548.6250   2649.1272  -2618.1272     105.1642     176.4822      54.8419    1073.9891       0.2641       0.2926       2.1175       0.1168       0.0484
   3548.7500   2649.1594  -2618.1594     105.9077     176.8910      56.5934    1197.6589       0.2640       0.2961       2.1109       0.1180       0.0644
   3548.8750   2649.1917  -2618.1917     106.2649     177.0180      58.3506    1284.3301       0.2570       0.2983       2.1067       0.1184       0.0463
   3549.0000   2649.2239  -2618.2239     106.3528     177.0180      61.0284    1346.3080       0.2504       0.2999       2.1038       0.1184       0.0303
