#------------------------------------------------------------------------------
#
#   Created by  : [OpenWorks] Log Export Utility (LEXP)
#   Created on  : 2007-05-07 11:56:58
#   Project     : NORNE
#   User        : JSE
#   Interpreter : JSE
#
#------------------------------------------------------------------------------
~VERSION INFORMATION
VERS. 2.0 : CWLS Log ASCII Standard - version 2.0
WRAP.  NO : One line per depth step
~WELL INFORMATION
#MNEMONIC   .UNIT                                           VALUE :DESCRIPTION
#------------------------------------------------------------------------------
STRT        .M                                          1300.1250 :START DEPTH
STOP        .M                                          3919.5000 :STOP DEPTH
STEP        .M                                             0.1250 :STEP
NULL        .                                           -999.2500 :NULL VALUE
COMP        .                                             STATOIL :COMPANY
WELL        .                                      	Norne1 	:WELL
FLD         .                                             UNKNOWN :FIELD
LOC         .                                             UNKNOWN :LOCATION
CNTY        .                                             UNKNOWN :COUNTY
STAT        .                                              Norway :STATE
CTRY        .                                              Norway :COUNTRY
SRVC        .                                             UNKNOWN :SERVICE COMPANY
DATE        .                                             UNKNOWN :LOG DATE
UWI         .                                   NO 6608/10-B-4 AH :UNIQUE WELL ID
XCOORD      .                                       457114.155170 :SURFACE X
YCOORD      .                                      7322136.377520 :SURFACE Y
LAT         .                                           66.015409 :LATITUDE
LON         .                                            8.054547 :LONGITUDE
ELEV        .M                                            31.0000 :SURFACE ELEV
ELEV_TYPE   .                                                  KB :ELEV TYPE
~CURVE INFORMATION
#MNEMONIC.UNIT        API CODE       : CURVE DESCRIPTION
#------------------------------------------------------------------------------
DEPTH    .M                          : Measured Depth
TVD      .M                          : True Vertical Depth (TVD)
TVDSS    .M                          : True Vertical Depth (TVDSS)
DTC       .us/ft       UNKNOWN        : DTC:CURVE_LOADER:rC::v0 (auto-composite)
DTS      .us/ft       UNKNOWN        : DTS:CURVE_LOADER:rC::v0 (auto-composite)
GR       .API         UNKNOWN        : GR:CURVE_LOADER:rC::v0 (auto-composite)
KLOGH    .mD          UNKNOWN        : KLOGH:UNKNOWN:rC::v0 (auto-composite)
NPHI     .v/v_decimal UNKNOWN        : NPHI:PETROWORKS:rC:NONE:v2 
PHIF     .v/v_decimal UNKNOWN        : PHIF:UNKNOWN:rC::v0 (auto-composite)
RHOB     .g/cm3       UNKNOWN        : RHOB:PETROWORKS:rC:NONE:v3 
SW       .v/v_decimal UNKNOWN        : SW:UNKNOWN:rC::v0 (auto-composite)
VSH      .v/v_decimal UNKNOWN        : VSH:UNKNOWN:rC::v0 (auto-composite)
~A     DEPTH         TVD       TVDSS           DT          DTS           GR        KLOGH         NPHI         PHIF         RHOB           SW          VSH
# ...
   3295.6250   2604.4285  -2573.4285     101.5206     168.5058     122.1555      16.0437       0.2680       0.2178       2.2676       0.2710       0.2123
   3295.7500   2604.4587  -2573.4587     102.0021     168.6241     120.9841      19.2009       0.2696       0.2214       2.2608       0.2668       0.2090
   3295.8750   2604.4893  -2573.4893     102.6149     168.9610     118.6989      21.7306       0.2700       0.2238       2.2561       0.2655       0.2053
   3296.0000   2604.5195  -2573.5195     103.4809     169.2086     117.1882      23.0046       0.2690       0.2250       2.2540       0.2657       0.2011
   3296.1250   2604.5498  -2573.5498     104.0010     169.3419     116.3747      22.8305       0.2690       0.2248       2.2544       0.2669       0.2013
   3296.2500   2604.5801  -2573.5801     104.1550     169.6008     119.7450      21.4685       0.2690       0.2236       2.2568       0.2700       0.2035
   3296.3750   2604.6104  -2573.6104     104.0755     170.1550     120.0497      19.7189       0.2652       0.2219       2.2600       0.2712       0.1991
   3296.5000   2604.6409  -2573.6409     104.3022     170.1331     115.1456      17.3036       0.2675       0.2193       2.2650       0.2743       0.2084
   3296.6250   2604.6711  -2573.6711     104.1430     170.3070     110.4036      16.6862       0.2676       0.2186       2.2664       0.2748       0.2100
   3296.7500   2604.7014  -2573.7014     103.7541     170.8518     108.0216      18.5567       0.2677       0.2207       2.2623       0.2710       0.2063
   3296.8750   2604.7317  -2573.7317     104.2414     171.0813     105.5350      21.9460       0.2805       0.2240       2.2557       0.2656       0.2259
   3297.0000   2604.7620  -2573.7620     104.1422     170.9388     100.9800      25.4372       0.2699       0.2270       2.2500       0.2610       0.1992
   3297.1250   2604.7925  -2573.7925     104.5087     171.1119     101.1090      27.0601       0.2714       0.2282       2.2476       0.2600       0.2000
   3297.2500   2604.8228  -2573.8228     104.5310     171.4632     101.5339      28.6316       0.2625       0.2294       2.2455       0.2593       0.1802
   3297.3750   2604.8530  -2573.8530     103.9905     171.6512     101.5252      31.8208       0.2546       0.2315       2.2414       0.2570       0.1604
   3297.5000   2604.8833  -2573.8833     102.9332     171.4975     101.5952      37.0448       0.2597       0.2345       2.2356       0.2532       0.1652
   3297.6250   2604.9136  -2573.9136     101.4808     171.4827     102.0501      39.4374       0.2581       0.2358       2.2331       0.2510       0.1597
   3297.7500   2604.9438  -2573.9438     102.4950     171.8379     101.2024      38.1212       0.2728       0.2351       2.2346       0.2538       0.1903
   3297.8750   2604.9744  -2573.9744     101.7162     172.0918     101.0992      36.6594       0.2728       0.2343       2.2362       0.2569       0.1916
   3298.0000   2605.0046  -2574.0046      99.9267     172.2843     101.2923      34.5553       0.2675       0.2331       2.2387       0.2616       0.1831
   3298.1250   2605.0349  -2574.0349      98.4439     172.3773     100.7302      32.5109       0.2628       0.2319       2.2412       0.2665       0.1758
   3298.2500   2605.0652  -2574.0652      98.3731     172.2924      98.6948      32.2503       0.2590       0.2317       2.2416       0.2672       0.1685
   3298.3750   2605.0955  -2574.0955      98.0555     172.5058     101.0122      37.1224       0.2590       0.2346       2.2358       0.2586       0.1635
   3298.5000   2605.1260  -2574.1260      98.8445     172.4775     101.2011      41.3464       0.2702       0.2367       2.2315       0.2531       0.1821
   3298.6250   2605.1562  -2574.1562      98.9666     172.2567     100.7729      34.6097       0.2745       0.2332       2.2383       0.2569       0.1971
   3298.7500   2605.1865  -2574.1865      99.0917     171.9568     100.1973      18.7444       0.2726       0.2209       2.2620       0.2733       0.2158
   3298.8750   2605.2168  -2574.2168      99.7701     171.6890      99.7396       7.1334       0.2674       0.2015       2.2993       0.3020       0.2405
   3299.0000   2605.2471  -2574.2471      99.8667     171.5063      99.7639       3.1052       0.2543       0.1849       2.3313       0.3297       0.2446
   3299.1250   2605.2776  -2574.2776     100.1703     171.4107     102.0978       2.5232       0.2500       0.1807       2.3392       0.3366       0.2411
   3299.2500   2605.3079  -2574.3079      99.5654     171.3917     102.3204       3.4402       0.2589       0.1869       2.3273       0.3259       0.2502
   3299.3750   2605.3381  -2574.3381     100.0769     171.2856     102.0257       5.4543       0.2725       0.1962       2.3097       0.3127       0.2605
   3299.5000   2605.3684  -2574.3684     101.1454     170.9207     101.8547       7.8378       0.2833       0.2034       2.2959       0.3037       0.2688
   3299.6250   2605.3987  -2574.3987     100.9058     170.2854     101.9263       9.2165       0.2868       0.2067       2.2897       0.2988       0.2699
   3299.7500   2605.4290  -2574.4290     101.2554     170.3494     104.4723      10.0250       0.2852       0.2083       2.2864       0.2955       0.2636
   3299.8750   2605.4595  -2574.4595     100.7455     170.8275     103.1348      10.1069       0.2720       0.2085       2.2860       0.2939       0.2369
   3300.0000   2605.4897  -2574.4897     101.1506     171.1960     101.7013      10.5495       0.2675       0.2094       2.2844       0.2930       0.2265
   3300.1250   2605.5200  -2574.5200     101.7725     171.3289     100.7504      11.3746       0.2651       0.2109       2.2815       0.2922       0.2188
   3300.2500   2605.5503  -2574.5503     102.1542     171.2930     100.1388      12.8337       0.2607       0.2133       2.2770       0.2902       0.2056
   3300.3750   2605.5806  -2574.5806     103.0500     171.3290      99.5308      16.2624       0.2640       0.2180       2.2680       0.2852       0.2034
   3300.5000   2605.6111  -2574.6111     103.6365     171.4921      99.9535      20.1621       0.2533       0.2223       2.2598       0.2807       0.1742
   3300.6250   2605.6414  -2574.6414     104.2993     171.8549     101.7278      25.8530       0.2542       0.2273       2.2503       0.2757       0.1669
   3300.7500   2605.6716  -2574.6716     104.4742     172.7410     102.1408      31.5105       0.2611       0.2313       2.2427       0.2723       0.1735
   3300.8750   2605.7019  -2574.7019     104.0837     173.9278     101.2313      36.9578       0.2690       0.2345       2.2367       0.2702       0.1834
   3301.0000   2605.7322  -2574.7322     103.4155     174.9491     100.5600      43.3633       0.2739       0.2377       2.2307       0.2683       0.1873
   3301.1250   2605.7627  -2574.7627     103.1045     175.5801     101.4976      46.3021       0.2731       0.2390       2.2282       0.2677       0.1832
   3301.2500   2605.7930  -2574.7930     104.1081     173.3622     101.7904      49.4057       0.2730       0.2403       2.2258       0.2668       0.1807
   3301.3750   2605.8232  -2574.8232     103.5265     172.8029     102.0193      49.6725       0.2764       0.2404       2.2256       0.2668       0.1873
   3301.5000   2605.8535  -2574.8535     102.8175     172.9024     102.2169      50.6024       0.2805       0.2408       2.2248       0.2662       0.1949
   3301.6250   2605.8838  -2574.8838     102.9851     172.7930     102.3795      52.2351       0.2822       0.2414       2.2236       0.2654       0.1970
   3301.7500   2605.9141  -2574.9141     103.5604     172.8059     102.6363      48.7572       0.2789       0.2400       2.2263       0.2673       0.1930
   3301.8750   2605.9446  -2574.9446     102.8687     173.2178     105.6334      38.5593       0.2765       0.2353       2.2353       0.2727       0.1967
   3302.0000   2605.9749  -2574.9749     101.5603     173.7977     106.3796      24.2662       0.2733       0.2260       2.2530       0.2820       0.2074
