#------------------------------------------------------------------------------
#
#   Created by  : [OpenWorks] Log Export Utility (LEXP)
#   Created on  : 2007-05-07 11:56:58
#   Project     : NORNE
#   User        : JSE
#   Interpreter : JSE
#
#------------------------------------------------------------------------------
~VERSION INFORMATION
VERS. 2.0 : CWLS Log ASCII Standard - version 2.0
WRAP.  NO : One line per depth step
~WELL INFORMATION
#MNEMONIC   .UNIT                                           VALUE :DESCRIPTION
#------------------------------------------------------------------------------
STRT        .M                                          1300.1250 :START DEPTH
STOP        .M                                          3919.5000 :STOP DEPTH
STEP        .M                                             0.1250 :STEP
NULL        .                                           -999.2500 :NULL VALUE
COMP        .                                             STATOIL :COMPANY
WELL        .                                      	Norne1 	:WELL
FLD         .                                             UNKNOWN :FIELD
LOC         .                                             UNKNOWN :LOCATION
CNTY        .                                             UNKNOWN :COUNTY
STAT        .                                              Norway :STATE
CTRY        .                                              Norway :COUNTRY
SRVC        .                                             UNKNOWN :SERVICE COMPANY
DATE        .                                             UNKNOWN :LOG DATE
UWI         .                                   NO 6608/10-B-4 AH :UNIQUE WELL ID
XCOORD      .                                       457114.155170 :SURFACE X
YCOORD      .                                      7322136.377520 :SURFACE Y
LAT         .                                           66.015409 :LATITUDE
LON         .                                            8.054547 :LONGITUDE
ELEV        .M                                            31.0000 :SURFACE ELEV
ELEV_TYPE   .                                                  KB :ELEV TYPE
~CURVE INFORMATION
#MNEMONIC.UNIT        API CODE       : CURVE DESCRIPTION
#------------------------------------------------------------------------------
DEPTH    .M                          : Measured Depth
TVD      .M                          : True Vertical Depth (TVD)
TVDSS    .M                          : True Vertical Depth (TVDSS)
DTC       .us/ft       UNKNOWN        : DTC:CURVE_LOADER:rC::v0 (auto-composite)
DTS      .us/ft       UNKNOWN        : DTS:CURVE_LOADER:rC::v0 (auto-composite)
GR       .API         UNKNOWN        : GR:CURVE_LOADER:rC::v0 (auto-composite)
KLOGH    .mD          UNKNOWN        : KLOGH:UNKNOWN:rC::v0 (auto-composite)
NPHI     .v/v_decimal UNKNOWN        : NPHI:PETROWORKS:rC:NONE:v2 
PHIF     .v/v_decimal UNKNOWN        : PHIF:UNKNOWN:rC::v0 (auto-composite)
RHOB     .g/cm3       UNKNOWN        : RHOB:PETROWORKS:rC:NONE:v3 
SW       .v/v_decimal UNKNOWN        : SW:UNKNOWN:rC::v0 (auto-composite)
VSH      .v/v_decimal UNKNOWN        : VSH:UNKNOWN:rC::v0 (auto-composite)
~A     DEPTH         TVD       TVDSS           DT          DTS           GR        KLOGH         NPHI         PHIF         RHOB           SW          VSH
# ...
   3737.6250   2722.8501  -2691.8501     100.3619     176.4953      50.7130    1216.7717       0.2696       0.2884       2.2004       0.7378       0.0089
   3737.7500   2722.9172  -2691.9172      98.1030     176.0867      51.6993    1134.5973       0.2663       0.2869       2.2037       0.7448       0.0212
   3737.8750   2722.9844  -2691.9844      98.0915     173.6893      52.6841    1058.5663       0.2630       0.2853       2.2070       0.7523       0.0336
   3738.0000   2723.0515  -2692.0515      98.1558     172.8560      54.0057     988.1486       0.2570       0.2838       2.2102       0.7600       0.0501
   3738.1250   2723.1187  -2692.1187      97.5808     172.9748      54.1974     910.5606       0.2564       0.2820       2.2139       0.7662       0.0525
   3738.2500   2723.1858  -2692.1858      96.9854     173.3522      53.3284     888.8461       0.2640       0.2814       2.2148       0.7658       0.0416
   3738.3750   2723.2529  -2692.2529      98.3772     174.1316      53.7997    1093.7865       0.2723       0.2860       2.2056       0.7516       0.0475
   3738.5000   2723.3201  -2692.3201     100.0502     176.0352      54.2711    1580.7433       0.2846       0.2942       2.1892       0.7264       0.0534
   3738.6250   2723.3872  -2692.3872      99.8620     176.7048      57.5491    2176.7324       0.2857       0.3014       2.1754       0.7118       0.0791
   3738.7500   2723.4543  -2692.4543      98.0000     176.8580      59.7747    2385.1650       0.2816       0.3034       2.1724       0.7190       0.0669
   3738.8750   2723.5215  -2692.5215      96.9248     176.8580      60.5174    2019.7677       0.2735       0.2997       2.1801       0.7335       0.0572
   3739.0000   2723.5886  -2692.5886      98.1632     176.8580      60.6328    1408.6543       0.2614       0.2917       2.1944       0.7349       0.0483
   3739.1250   2723.6558  -2692.6558      96.1710     176.8580      59.7575     918.4134       0.2508       0.2821       2.2108       0.7289       0.0452
   3739.2500   2723.7229  -2692.7229      94.0334     175.8844      58.8836     701.1033       0.2325       0.2761       2.2219       0.7349       0.0148
   3739.3750   2723.7900  -2692.7900      94.9895     174.0689      57.1311     586.2166       0.2253       0.2721       2.2291       0.7367       0.0068
   3739.5000   2723.8572  -2692.8572      95.0076     172.4578      56.1716     533.4520       0.2268       0.2700       2.2324       0.7314       0.0143
   3739.6250   2723.9243  -2692.9243      93.7353     171.3708      56.2836     515.8311       0.2314       0.2693       2.2330       0.7210       0.0260
   3739.7500   2723.9915  -2692.9915      95.1210     170.3875      56.0514     505.3531       0.2331       0.2688       2.2331       0.7113       0.0307
   3739.8750   2724.0586  -2693.0586      94.0970     172.3272      55.8196     467.1124       0.2356       0.2671       2.2356       0.7020       0.0396
   3740.0000   2724.1257  -2693.1257      93.6455     172.5228      54.7986     484.3714       0.2374       0.2679       2.2340       0.6992       0.0420
   3740.1250   2724.1929  -2693.1929      94.6376     171.7472      54.7607     634.5783       0.2385       0.2739       2.2224       0.6879       0.0333
   3740.2500   2724.2600  -2693.2600      95.6641     171.0567      55.2769    1003.9346       0.2355       0.2841       2.2027       0.6662       0.0081
   3740.3750   2724.3271  -2693.3271      95.5111     171.0104      55.5384    1702.3517       0.2279       0.2959       2.1794       0.6376       0.0010
   3740.5000   2724.3943  -2693.3943      95.7072     170.5066      55.7998    2679.4138       0.2270       0.3060       2.1589       0.6078       0.0010
   3740.6250   2724.4614  -2693.4614      94.1377     171.0702      56.2887    2961.3267       0.2333       0.3082       2.1533       0.5877       0.0010
   3740.7500   2724.5286  -2693.5286      93.2828     171.5028      57.0202    1592.4235       0.2483       0.2944       2.1785       0.5913       0.0185
   3740.8750   2724.5957  -2693.5957      91.5402     170.6009      58.2856     202.1454       0.2625       0.2484       2.2667       0.6709       0.1036
   3741.0000   2724.6628  -2693.6628      88.1849     168.1256      59.7277       1.4512       0.2683       0.1384       2.4232       1.0000       0.1081
   3741.1250   2724.7300  -2693.7300      83.8765     164.5048      60.5991       0.0056       0.2622       0.0145       2.6263       1.0000       0.1178
   3741.2500   2724.7971  -2693.7971      82.5908     157.9998      61.4692       0.0030       0.2515       0.0010       2.8347       1.0000       0.1274
   3741.3750   2724.8645  -2693.8645      81.9686     156.5401      61.9379       0.0030       0.2507       0.0010       2.9562       1.0000       0.1326
   3741.5000   2724.9316  -2693.9316      84.0123     150.5230      62.9754       0.0030       0.2694       0.0010       2.9819       1.0000       0.1442
   3741.6250   2724.9988  -2693.9988      86.8477     145.7715      64.5776       0.0030       0.2974       0.0010       2.9087       1.0000       0.1620
   3741.7500   2725.0659  -2694.0659      89.1193     147.1249      66.1154       0.0030       0.3193       0.0010       2.7540       1.0000       0.1791
   3741.8750   2725.1331  -2694.1331      92.7443     149.0728      66.2786       0.0295       0.3210       0.0516       2.5653       1.0000       0.1809
   3742.0000   2725.2002  -2694.2002      96.3330     151.9809      66.5151       1.9948       0.3017       0.1455       2.4105       0.9740       0.1835
   3742.1250   2725.2673  -2694.2673      97.3274     155.3299      66.5737      19.4403       0.2832       0.1962       2.3164       0.7656       0.1842
   3742.2500   2725.3345  -2694.3345      96.7320     160.0454      66.5769      47.0936       0.2648       0.2160       2.2798       0.7094       0.1842
   3742.3750   2725.4016  -2694.4016      95.0586     164.2059      67.6226      31.6413       0.2520       0.2071       2.2967       0.7413       0.1901
   3742.5000   2725.4688  -2694.4688      92.7238     164.8701      70.5241       6.7451       0.2530       0.1727       2.3607       0.8571       0.2280
   3742.6250   2725.5359  -2694.5359      92.2578     164.0562      70.9513       0.6499       0.2629       0.1205       2.4526       1.0000       0.2328
   3742.7500   2725.6030  -2694.6030      92.7592     163.0022      72.0004       0.1840       0.2858       0.0924       2.4986       1.0000       0.2445
   3742.8750   2725.6702  -2694.6702      93.8238     161.3328      73.2635       0.2501       0.2962       0.0992       2.4874       1.0000       0.2585
   3743.0000   2725.7373  -2694.7373      95.1282     159.8983      74.5934       1.3077       0.2910       0.1361       2.4270       1.0000       0.2733
   3743.1250   2725.8044  -2694.8044      96.3039     159.2601      75.1399       9.5234       0.2767       0.1803       2.3471       0.8435       0.2793
   3743.2500   2725.8716  -2694.8716      96.9580     159.1090      73.0906      30.6321       0.2670       0.2064       2.3000       0.7760       0.2208
   3743.3750   2725.9387  -2694.9387      95.5898     158.3951      73.4092      55.0604       0.2703       0.2194       2.2760       0.7478       0.2031
   3743.5000   2726.0059  -2695.0059      93.2406     157.4477      73.7248      46.6200       0.2704       0.2157       2.2833       0.7655       0.2098
   3743.6250   2726.0730  -2695.0730      91.0524     156.4669      73.9798      18.2108       0.2756       0.1948       2.3223       0.8322       0.2589
   3743.7500   2726.1401  -2695.1401      90.5285     157.4539      73.4084       4.2879       0.2794       0.1626       2.3812       0.9427       0.2601
   3743.8750   2726.2073  -2695.2073      92.5482     161.4888      71.5972       0.9208       0.2753       0.1283       2.4398       1.0000       0.2400
   3744.0000   2726.2744  -2695.2744      95.0041     162.0065      71.0175       0.4195       0.2925       0.1108       2.4685       1.0000       0.2335
