#------------------------------------------------------------------------------
#
#   Created by  : [OpenWorks] Log Export Utility (LEXP)
#   Created on  : 2007-05-07 11:56:58
#   Project     : NORNE
#   User        : JSE
#   Interpreter : JSE
#
#------------------------------------------------------------------------------
~VERSION INFORMATION
VERS. 2.0 : CWLS Log ASCII Standard - version 2.0
WRAP.  NO : One line per depth step
~WELL INFORMATION
#MNEMONIC   .UNIT                                           VALUE :DESCRIPTION
#------------------------------------------------------------------------------
STRT        .M                                          1300.1250 :START DEPTH
STOP        .M                                          3919.5000 :STOP DEPTH
STEP        .M                                             0.1250 :STEP
NULL        .                                           -999.2500 :NULL VALUE
COMP        .                                             STATOIL :COMPANY
WELL        .                                      	Norne1 	:WELL
FLD         .                                             UNKNOWN :FIELD
LOC         .                                             UNKNOWN :LOCATION
CNTY        .                                             UNKNOWN :COUNTY
STAT        .                                              Norway :STATE
CTRY        .                                              Norway :COUNTRY
SRVC        .                                             UNKNOWN :SERVICE COMPANY
DATE        .                                             UNKNOWN :LOG DATE
UWI         .                                   NO 6608/10-B-4 AH :UNIQUE WELL ID
XCOORD      .                                       457114.155170 :SURFACE X
YCOORD      .                                      7322136.377520 :SURFACE Y
LAT         .                                           66.015409 :LATITUDE
LON         .                                            8.054547 :LONGITUDE
ELEV        .M                                            31.0000 :SURFACE ELEV
ELEV_TYPE   .                                                  KB :ELEV TYPE
~CURVE INFORMATION
#MNEMONIC.UNIT        API CODE       : CURVE DESCRIPTION
#------------------------------------------------------------------------------
DEPTH    .M                          : Measured Depth
TVD      .M                          : True Vertical Depth (TVD)
TVDSS    .M                          : True Vertical Depth (TVDSS)
DTC       .us/ft       UNKNOWN        : DTC:CURVE_LOADER:rC::v0 (auto-composite)
DTS      .us/ft       UNKNOWN        : DTS:CURVE_LOADER:rC::v0 (auto-composite)
GR       .API         UNKNOWN        : GR:CURVE_LOADER:rC::v0 (auto-composite)
KLOGH    .mD          UNKNOWN        : KLOGH:UNKNOWN:rC::v0 (auto-composite)
NPHI     .v/v_decimal UNKNOWN        : NPHI:PETROWORKS:rC:NONE:v2 
PHIF     .v/v_decimal UNKNOWN        : PHIF:UNKNOWN:rC::v0 (auto-composite)
RHOB     .g/cm3       UNKNOWN        : RHOB:PETROWORKS:rC:NONE:v3 
SW       .v/v_decimal UNKNOWN        : SW:UNKNOWN:rC::v0 (auto-composite)
VSH      .v/v_decimal UNKNOWN        : VSH:UNKNOWN:rC::v0 (auto-composite)
~A     DEPTH         TVD       TVDSS           DT          DTS           GR        KLOGH         NPHI         PHIF         RHOB           SW          VSH
# ...
   3243.6250   2590.9683  -2559.9683      96.6339     160.4868     105.7989       4.2093       0.1853       0.1910       2.2196       0.2500       0.2198
   3243.7500   2591.0083  -2560.0083      96.5260     161.1736     105.0222       4.9306       0.1847       0.1941       2.2109       0.2430       0.2164
   3243.8750   2591.0483  -2560.0483      97.5399     161.6304     104.8051       6.3303       0.1847       0.1991       2.1977       0.2356       0.2122
   3244.0000   2591.0884  -2560.0884      99.2294     161.7969     105.1609       7.4577       0.1886       0.2024       2.1893       0.2325       0.2176
   3244.1250   2591.1272  -2560.1272     101.1322     163.4626     105.5169       8.7855       0.1925       0.2057       2.1809       0.2296       0.2229
   3244.2500   2591.1619  -2560.1619     102.6069     166.3270     100.7576      13.6080       0.1948       0.2145       2.1579       0.2187       0.2205
   3244.3750   2591.1963  -2560.1963     103.4053     168.7644      98.5296      17.3864       0.1909       0.2194       2.1445       0.2104       0.2086
   3244.5000   2591.2310  -2560.2310     104.3110     170.8100      96.9108      21.6241       0.1867       0.2237       2.1327       0.2042       0.1962
   3244.6250   2591.2654  -2560.2654     105.6834     172.8403      94.6682      28.1586       0.1850       0.2290       2.1190       0.1997       0.1878
   3244.7500   2591.3000  -2560.3000     106.9180     175.2230      94.0945      30.3730       0.1807       0.2305       2.1150       0.1976       0.1772
   3244.8750   2591.3347  -2560.3347     107.2434     174.1057      93.5049      32.7980       0.1762       0.2321       2.1108       0.1957       0.1666
   3245.0000   2591.3691  -2560.3691     106.7205     172.9642      91.4244      33.3126       0.1680       0.2324       2.1100       0.1953       0.1488
   3245.1250   2591.4038  -2560.4038     106.7004     172.1301      89.4708      33.3862       0.1587       0.2324       2.1100       0.1958       0.1285
   3245.2500   2591.4382  -2560.4382     106.8303     171.5670      87.8983      38.6443       0.1512       0.2354       2.1027       0.1948       0.1095
   3245.3750   2591.4729  -2560.4729     106.4765     171.2263      86.3320      57.7444       0.1473       0.2434       2.0822       0.1899       0.0935
   3245.5000   2591.5073  -2560.5073     107.5120     171.8967      84.7657      86.2778       0.1433       0.2514       2.0617       0.1852       0.0776
   3245.6250   2591.5420  -2560.5420     108.6016     171.9402      83.8966      49.1893       0.1424       0.2402       2.0892       0.1866       0.0874
   3245.7500   2591.5764  -2560.5764     108.3700     172.8325      84.6405      44.5688       0.1470       0.2382       2.0939       0.1859       0.0995
   3245.8750   2591.6111  -2560.6111     107.7401     174.3705      85.2654      51.7311       0.1515       0.2412       2.0862       0.1839       0.1066
   3246.0000   2591.6458  -2560.6458     107.2428     175.9449      85.0340      60.6942       0.1537       0.2444       2.0780       0.1818       0.1085
   3246.1250   2591.6802  -2560.6802     106.5872     176.7647      84.5688      70.7884       0.1553       0.2475       2.0700       0.1796       0.1090
   3246.2500   2591.7148  -2560.7148     106.3361     175.9122      78.6397      69.5332       0.1403       0.2471       2.0700       0.1759       0.0782
   3246.3750   2591.7493  -2560.7493     105.5654     171.6330      75.8625      77.5169       0.1334       0.2493       2.0633       0.1700       0.0626
   3246.5000   2591.7839  -2560.7839     105.0940     168.8225      74.1455      91.0504       0.1282       0.2525       2.0551       0.1684       0.0484
   3246.6250   2591.8184  -2560.8184     104.9130     168.0605      72.7872     107.5502       0.1226       0.2559       2.0469       0.1679       0.0329
   3246.7500   2591.8530  -2560.8530     104.5839     168.2019      71.6057     124.9066       0.1164       0.2589       2.0387       0.1641       0.0175
   3246.8750   2591.8875  -2560.8875     103.3499     168.1888      70.4241     146.8926       0.1102       0.2621       2.0305       0.1630       0.0011
   3247.0000   2591.9221  -2560.9221     104.6431     167.1663      70.6165     147.0461       0.1155       0.2621       2.0300       0.1613       0.0130
   3247.1250   2591.9565  -2560.9565     105.5981     167.0363      69.5995     104.4832       0.1205       0.2553       2.0478       0.1660       0.0297
   3247.2500   2591.9912  -2560.9912     106.3083     166.7772      68.9513      89.8361       0.1217       0.2523       2.0558       0.1686       0.0348
   3247.3750   2592.0259  -2561.0259     107.2256     166.8232      69.1372     105.9187       0.1197       0.2556       2.0476       0.1676       0.0272
   3247.5000   2592.0603  -2561.0603     108.6864     168.7544      69.2680     128.7323       0.1179       0.2595       2.0378       0.1664       0.0194
   3247.6250   2592.0950  -2561.0950     108.4674     169.5290      68.6473     246.0063       0.1192       0.2724       2.0055       0.1639       0.0093
   3247.7500   2592.1294  -2561.1294     108.1057     171.3267      69.9852     270.2955       0.1247       0.2743       2.0002       0.1611       0.0201
   3247.8750   2592.1641  -2561.1641     107.2974     174.0249      70.9391     285.7268       0.1262       0.2754       1.9974       0.1609       0.0221
   3248.0000   2592.1985  -2561.1985     106.4164     176.8678      71.4619     309.9065       0.1248       0.2771       1.9933       0.1604       0.0176
   3248.1250   2592.2332  -2561.2332     105.8062     179.0883      71.5936     355.7722       0.1225       0.2798       1.9869       0.1616       0.0093
   3248.2500   2592.2676  -2561.2676     105.2639     180.3724      70.0731     486.2577       0.1159       0.2861       1.9705       0.1574       0.0010
   3248.3750   2592.3022  -2561.3022     106.1982     180.5287      70.4539     359.7359       0.1139       0.2800       1.9859       0.1600       0.0010
   3248.5000   2592.3369  -2561.3369     107.1141     180.8323      71.4172     205.2277       0.1133       0.2688       2.0147       0.1651       0.0010
   3248.6250   2592.3713  -2561.3713     107.7810     181.0160      72.2620     132.3888       0.1148       0.2600       2.0365       0.1669       0.0120
   3248.7500   2592.4060  -2561.4060     108.2125     180.7240      72.8520     104.6173       0.1177       0.2553       2.0487       0.1699       0.0225
   3248.8750   2592.4404  -2561.4404     108.6028     179.7863      73.4598      84.6219       0.1209       0.2511       2.0597       0.1728       0.0332
   3249.0000   2592.4751  -2561.4751     109.3470     179.3736      74.2360      84.8402       0.1269       0.2511       2.0600       0.1744       0.0455
   3249.1250   2592.5095  -2561.5095     108.9999     179.0607      75.0498      98.2389       0.1257       0.2540       2.0528       0.1743       0.0399
   3249.2500   2592.5442  -2561.5442     109.3361     178.8118      75.5773     109.9068       0.1249       0.2563       2.0472       0.1734       0.0360
   3249.3750   2592.5786  -2561.5786     109.7079     178.4659      75.9520     119.4489       0.1248       0.2580       2.0428       0.1722       0.0343
   3249.5000   2592.6133  -2561.6133     109.4865     177.9537      76.8217     146.1042       0.1275       0.2620       2.0324       0.1698       0.0365
   3249.6250   2592.6479  -2561.6479     109.0130     177.4160      79.4592     273.9314       0.1403       0.2746       2.0001       0.1633       0.0526
   3249.7500   2592.6824  -2561.6824     109.2783     177.0868      78.9601     105.3024       0.1408       0.2554       2.0492       0.1730       0.0712
   3249.8750   2592.7170  -2561.7170     108.9086     177.5043      78.3755      80.1358       0.1404       0.2500       2.0632       0.1763       0.0753
   3250.0000   2592.7515  -2561.7515     108.8205     177.9296      77.7668      74.0887       0.1398       0.2484       2.0673       0.1775       0.0754
