#------------------------------------------------------------------------------
#
#   Created by  : [OpenWorks] Log Export Utility (LEXP)
#   Created on  : 2007-05-07 11:56:58
#   Project     : NORNE
#   User        : JSE
#   Interpreter : JSE
#
#------------------------------------------------------------------------------
~VERSION INFORMATION
VERS. 2.0 : CWLS Log ASCII Standard - version 2.0
WRAP.  NO : One line per depth step
~WELL INFORMATION
#MNEMONIC   .UNIT                                           VALUE :DESCRIPTION
#------------------------------------------------------------------------------
STRT        .M                                          1300.1250 :START DEPTH
STOP        .M                                          3919.5000 :STOP DEPTH
STEP        .M                                             0.1250 :STEP
NULL        .                                           -999.2500 :NULL VALUE
COMP        .                                             STATOIL :COMPANY
WELL        .                                      	Norne1 	:WELL
FLD         .                                             UNKNOWN :FIELD
LOC         .                                             UNKNOWN :LOCATION
CNTY        .                                             UNKNOWN :COUNTY
STAT        .                                              Norway :STATE
CTRY        .                                              Norway :COUNTRY
SRVC        .                                             UNKNOWN :SERVICE COMPANY
DATE        .                                             UNKNOWN :LOG DATE
UWI         .                                   NO 6608/10-B-4 AH :UNIQUE WELL ID
XCOORD      .                                       457114.155170 :SURFACE X
YCOORD      .                                      7322136.377520 :SURFACE Y
LAT         .                                           66.015409 :LATITUDE
LON         .                                            8.054547 :LONGITUDE
ELEV        .M                                            31.0000 :SURFACE ELEV
ELEV_TYPE   .                                                  KB :ELEV TYPE
~CURVE INFORMATION
#MNEMONIC.UNIT        API CODE       : CURVE DESCRIPTION
#------------------------------------------------------------------------------
DEPTH    .M                          : Measured Depth
TVD      .M                          : True Vertical Depth (TVD)
TVDSS    .M                          : True Vertical Depth (TVDSS)
DTC       .us/ft       UNKNOWN        : DTC:CURVE_LOADER:rC::v0 (auto-composite)
DTS      .us/ft       UNKNOWN        : DTS:CURVE_LOADER:rC::v0 (auto-composite)
GR       .API         UNKNOWN        : GR:CURVE_LOADER:rC::v0 (auto-composite)
KLOGH    .mD          UNKNOWN        : KLOGH:UNKNOWN:rC::v0 (auto-composite)
NPHI     .v/v_decimal UNKNOWN        : NPHI:PETROWORKS:rC:NONE:v2 
PHIF     .v/v_decimal UNKNOWN        : PHIF:UNKNOWN:rC::v0 (auto-composite)
RHOB     .g/cm3       UNKNOWN        : RHOB:PETROWORKS:rC:NONE:v3 
SW       .v/v_decimal UNKNOWN        : SW:UNKNOWN:rC::v0 (auto-composite)
VSH      .v/v_decimal UNKNOWN        : VSH:UNKNOWN:rC::v0 (auto-composite)
~A     DEPTH         TVD       TVDSS           DT          DTS           GR        KLOGH         NPHI         PHIF         RHOB           SW          VSH
# ...
   3198.1250   2575.9175  -2544.9175      91.9869     150.0241      75.5897     119.1791       0.2028       0.2412       2.0693       0.1093       0.1732
   3198.2500   2575.9609  -2544.9609      91.7014     149.8657      73.2371     131.5916       0.1933       0.2451       2.0611       0.1155       0.1471
   3198.3750   2576.0046  -2545.0046      90.8082     149.8450      70.9667     125.1428       0.1941       0.2431       2.0670       0.1203       0.1218
   3198.5000   2576.0481  -2545.0481      89.9236     148.8357      68.7088     115.9180       0.1965       0.2401       2.0752       0.1235       0.0968
   3198.6250   2576.0918  -2545.0918      89.4775     149.1308      68.1867     119.2372       0.2032       0.2412       2.0729       0.1253       0.0910
   3198.7500   2576.1353  -2545.1353      89.5176     150.7549      69.7202     136.2590       0.2145       0.2464       2.0601       0.1258       0.1080
   3198.8750   2576.1787  -2545.1787      89.4680     148.1360      70.4088     137.2374       0.2211       0.2467       2.0600       0.1284       0.1156
   3199.0000   2576.2224  -2545.2224      90.5441     150.6151      70.6772     155.6714       0.2213       0.2516       2.0478       0.1282       0.1186
   3199.1250   2576.2659  -2545.2659      92.9930     151.0366      70.9477     176.8009       0.2215       0.2566       2.0355       0.1280       0.1216
   3199.2500   2576.3093  -2545.3093      94.6400     150.9645      71.2550     180.8390       0.2224       0.2575       2.0344       0.1327       0.1251
   3199.3750   2576.3530  -2545.3530      95.3619     151.6224      72.1834     169.2385       0.2231       0.2549       2.0426       0.1401       0.1354
   3199.5000   2576.3965  -2545.3965      96.1237     153.3074      74.0312     157.8402       0.2220       0.2522       2.0500       0.1431       0.1559
   3199.6250   2576.4402  -2545.4402      96.4158     153.2065      73.9604     157.8648       0.2201       0.2522       2.0500       0.1432       0.1551
   3199.7500   2576.4836  -2545.4836      95.7285     151.9402      73.8897     157.8895       0.2183       0.2522       2.0500       0.1432       0.1543
   3199.8750   2576.5271  -2545.5271      94.7709     150.1458      73.0661     158.0579       0.2122       0.2522       2.0500       0.1437       0.1452
   3200.0000   2576.5708  -2545.5708      93.5226     147.9204      72.4543     146.6967       0.2041       0.2493       2.0575       0.1450       0.1384
   3200.1250   2576.6143  -2545.6143      92.4534     145.6853      72.3361     131.8951       0.1979       0.2452       2.0680       0.1464       0.1371
   3200.2500   2576.6577  -2545.6577      92.8210     144.3756      71.6751     142.8324       0.1988       0.2483       2.0600       0.1449       0.1297
   3200.3750   2576.7014  -2545.7014      95.5333     144.8688      72.0577     142.7313       0.2046       0.2483       2.0600       0.1446       0.1340
   3200.5000   2576.7449  -2545.7449      95.9138     145.7008      72.4402     142.6309       0.2103       0.2482       2.0600       0.1443       0.1382
   3200.6250   2576.7886  -2545.7886      97.0259     156.9451      72.0649     129.7362       0.2240       0.2445       2.0695       0.1463       0.1341
   3200.7500   2576.8320  -2545.8320      98.8853     170.9147      72.1029     124.1105       0.2384       0.2428       2.0740       0.1474       0.1345
   3200.8750   2576.8755  -2545.8755     100.6424     176.2379      73.6670     143.7986       0.2429       0.2485       2.0592       0.1444       0.1519
   3201.0000   2576.9192  -2545.9192     103.9904     180.0594      74.3157     149.5087       0.2390       0.2501       2.0553       0.1436       0.1591
   3201.1250   2576.9626  -2545.9626     105.2126     188.6899      74.9644     155.4453       0.2352       0.2516       2.0514       0.1427       0.1663
   3201.2500   2577.0063  -2546.0063     105.1782     186.1536      77.0584     176.1746       0.2293       0.2565       2.0385       0.1393       0.1895
   3201.3750   2577.0498  -2546.0498     106.1763     181.4918      77.8970     190.8831       0.2266       0.2596       2.0301       0.1361       0.1989
   3201.5000   2577.0933  -2546.0933     108.3072     180.0014      77.3158     190.0265       0.2280       0.2594       2.0312       0.1391       0.1924
   3201.6250   2577.1370  -2546.1370     109.1944     179.1852      78.2412     181.4982       0.2280       0.2576       2.0352       0.1372       0.2027
   3201.7500   2577.1804  -2546.1804     110.1201     179.0402      79.1665     174.1447       0.2279       0.2560       2.0391       0.1370       0.2130
   3201.8750   2577.2239  -2546.2239     107.6840     178.3364      79.7616     172.7618       0.2275       0.2557       2.0399       0.1372       0.2196
   3202.0000   2577.2676  -2546.2676     104.5656     178.1301      80.8304     164.1019       0.2263       0.2537       2.0448       0.1369       0.2314
   3202.1250   2577.3110  -2546.3110     102.9251     178.3758      82.1476     165.7154       0.2227       0.2541       2.0435       0.1355       0.2461
   3202.2500   2577.3547  -2546.3547     103.1395     178.5324      83.1364     188.9073       0.2168       0.2592       2.0305       0.1336       0.2413
   3202.3750   2577.3982  -2546.3982     101.1824     177.8344      83.2790     189.3525       0.2135       0.2593       2.0303       0.1339       0.2340
   3202.5000   2577.4417  -2546.4417      99.2566     176.5100      83.4216     189.9463       0.2102       0.2594       2.0301       0.1341       0.2267
   3202.6250   2577.4854  -2546.4854      99.1054     179.7066      81.6834     178.8522       0.2216       0.2570       2.0360       0.1347       0.2409
   3202.7500   2577.5288  -2546.5288     100.3742     182.8484      81.4728     171.3029       0.2257       0.2554       2.0400       0.1341       0.2386
   3202.8750   2577.5723  -2546.5723     102.1792     184.4419      82.9812     168.6955       0.2182       0.2548       2.0412       0.1329       0.2491
   3203.0000   2577.6160  -2546.6160     103.3598     185.6773      83.5777     161.8097       0.2115       0.2531       2.0452       0.1329       0.2364
   3203.1250   2577.6594  -2546.6594     102.5540     178.9835      84.1743     155.2088       0.2048       0.2515       2.0492       0.1329       0.2236
   3203.2500   2577.7031  -2546.7031     103.0390     178.0037      83.3699     165.1777       0.2346       0.2539       2.0429       0.1317       0.2597
   3203.3750   2577.7466  -2546.7466     103.1663     177.9160      81.2496     169.6740       0.2426       0.2550       2.0406       0.1329       0.2361
   3203.5000   2577.7900  -2546.7900     103.0856     177.5930      79.2794     147.9520       0.2325       0.2497       2.0542       0.1345       0.2142
   3203.6250   2577.8337  -2546.8337     103.0374     177.1039      78.5960     103.3965       0.2230       0.2357       2.0899       0.1398       0.2066
   3203.7500   2577.8772  -2546.8772     102.4058     176.9916      78.7746      60.5992       0.2268       0.2149       2.1433       0.1511       0.2086
   3203.8750   2577.9209  -2546.9209     102.4311     176.5539      78.9531      35.4758       0.2306       0.1940       2.1970       0.1647       0.2106
   3204.0000   2577.9644  -2546.9644     102.2837     175.7278      80.1013      13.9133       0.2393       0.1575       2.2908       0.1974       0.2233
   3204.1250   2578.0078  -2547.0078     101.1309     174.2485      80.7075       8.5102       0.2436       0.1383       2.3400       0.2208       0.2301
   3204.2500   2578.0515  -2547.0515     100.1651     173.2848      80.6335       9.0928       0.2420       0.1409       2.3334       0.2178       0.2293
   3204.3750   2578.0950  -2547.0950     101.4240     173.9040      80.6440      11.1970       0.2387       0.1490       2.3130       0.2098       0.2294
   3204.5000   2578.1384  -2547.1384     103.7025     170.2199      80.6544      13.7888       0.2354       0.1571       2.2924       0.2026       0.2295
