#------------------------------------------------------------------------------
#
#   Created by  : [OpenWorks] Log Export Utility (LEXP)
#   Created on  : 2007-05-07 11:56:58
#   Project     : NORNE
#   User        : JSE
#   Interpreter : JSE
#
#------------------------------------------------------------------------------
~VERSION INFORMATION
VERS. 2.0 : CWLS Log ASCII Standard - version 2.0
WRAP.  NO : One line per depth step
~WELL INFORMATION
#MNEMONIC   .UNIT                                           VALUE :DESCRIPTION
#------------------------------------------------------------------------------
STRT        .M                                          1300.1250 :START DEPTH
STOP        .M                                          3919.5000 :STOP DEPTH
STEP        .M                                             0.1250 :STEP
NULL        .                                           -999.2500 :NULL VALUE
COMP        .                                             STATOIL :COMPANY
WELL        .                                      	Norne1 	:WELL
FLD         .                                             UNKNOWN :FIELD
LOC         .                                             UNKNOWN :LOCATION
CNTY        .                                             UNKNOWN :COUNTY
STAT        .                                              Norway :STATE
CTRY        .                                              Norway :COUNTRY
SRVC        .                                             UNKNOWN :SERVICE COMPANY
DATE        .                                             UNKNOWN :LOG DATE
UWI         .                                   NO 6608/10-B-4 AH :UNIQUE WELL ID
XCOORD      .                                       457114.155170 :SURFACE X
YCOORD      .                                      7322136.377520 :SURFACE Y
LAT         .                                           66.015409 :LATITUDE
LON         .                                            8.054547 :LONGITUDE
ELEV        .M                                            31.0000 :SURFACE ELEV
ELEV_TYPE   .                                                  KB :ELEV TYPE
~CURVE INFORMATION
#MNEMONIC.UNIT        API CODE       : CURVE DESCRIPTION
#------------------------------------------------------------------------------
DEPTH    .M                          : Measured Depth
TVD      .M                          : True Vertical Depth (TVD)
TVDSS    .M                          : True Vertical Depth (TVDSS)
DTC       .us/ft       UNKNOWN        : DTC:CURVE_LOADER:rC::v0 (auto-composite)
DTS      .us/ft       UNKNOWN        : DTS:CURVE_LOADER:rC::v0 (auto-composite)
GR       .API         UNKNOWN        : GR:CURVE_LOADER:rC::v0 (auto-composite)
KLOGH    .mD          UNKNOWN        : KLOGH:UNKNOWN:rC::v0 (auto-composite)
NPHI     .v/v_decimal UNKNOWN        : NPHI:PETROWORKS:rC:NONE:v2 
PHIF     .v/v_decimal UNKNOWN        : PHIF:UNKNOWN:rC::v0 (auto-composite)
RHOB     .g/cm3       UNKNOWN        : RHOB:PETROWORKS:rC:NONE:v3 
SW       .v/v_decimal UNKNOWN        : SW:UNKNOWN:rC::v0 (auto-composite)
VSH      .v/v_decimal UNKNOWN        : VSH:UNKNOWN:rC::v0 (auto-composite)
~A     DEPTH         TVD       TVDSS           DT          DTS           GR        KLOGH         NPHI         PHIF         RHOB           SW          VSH
# ...
   3341.1250   2613.9287  -2582.9287      84.6385     155.9309     134.6208       0.1483       0.3636       0.1240       2.4560       0.7288       0.5462
   3341.2500   2613.9512  -2582.9512      85.2613     152.5914     136.7594       0.1565       0.3836       0.1251       2.4532       0.6996       0.5676
   3341.3750   2613.9736  -2582.9736      86.2239     152.6486     137.6407       0.1504       0.3863       0.1243       2.4544       0.6934       0.5764
   3341.5000   2613.9958  -2582.9958      85.5560     151.5876     135.8698       0.1181       0.3945       0.1194       2.4642       0.7392       0.5587
   3341.6250   2614.0183  -2583.0183      87.0123     151.6386     134.8582       0.1152       0.3812       0.1189       2.4653       0.7467       0.5486
   3341.7500   2614.0408  -2583.0408      84.9329     151.8666     134.0116       0.1284       0.3705       0.1211       2.4611       0.7294       0.5401
   3341.8750   2614.0630  -2583.0630      82.4762     151.8141     131.6220       0.1547       0.3636       0.1248       2.4539       0.7071       0.5162
   3342.0000   2614.0854  -2583.0854      83.3977     151.3900     127.1805       0.1918       0.3563       0.1291       2.4459       0.6930       0.4718
   3342.1250   2614.1079  -2583.1079      82.8406     151.0133     124.9642       0.2287       0.3579       0.1327       2.4394       0.6803       0.4496
   3342.2500   2614.1304  -2583.1304      82.9731     150.4897     124.9245       0.2154       0.3781       0.1315       2.4413       0.6767       0.4492
   3342.3750   2614.1526  -2583.1526      82.5900     149.2175     125.0106       0.2162       0.3882       0.1315       2.4408       0.6655       0.4501
   3342.5000   2614.1750  -2583.1750      82.9197     149.5995     125.1404       0.2039       0.3852       0.1304       2.4429       0.6670       0.4514
   3342.6250   2614.1975  -2583.1975      83.9606     151.4704     125.2374       0.1835       0.3761       0.1283       2.4470       0.6795       0.4524
   3342.7500   2614.2197  -2583.2197      84.5211     152.5029     125.1729       0.1830       0.3726       0.1282       2.4472       0.6816       0.4517
   3342.8750   2614.2422  -2583.2422      85.0946     155.9056     125.4582       0.1726       0.3669       0.1270       2.4496       0.6941       0.4546
   3343.0000   2614.2646  -2583.2646      85.3155     156.9554     125.6221       0.1684       0.3743       0.1265       2.4507       0.7000       0.4562
   3343.1250   2614.2871  -2583.2871      85.6785     156.3941     125.7646       0.1651       0.3718       0.1261       2.4515       0.7044       0.4576
   3343.2500   2614.3093  -2583.3093      86.4135     155.2906     125.2217       0.1681       0.3687       0.1265       2.4510       0.7071       0.4522
   3343.3750   2614.3318  -2583.3318      87.1821     154.3271     124.6141       0.1712       0.3724       0.1269       2.4506       0.7131       0.4461
   3343.5000   2614.3542  -2583.3542      86.5388     152.9766     127.8988       0.1387       0.3642       0.1226       2.4588       0.7411       0.4790
   3343.6250   2614.3767  -2583.3767      86.2532     150.8327     129.8561       0.1116       0.3608       0.1183       2.4670       0.7638       0.4985
   3343.7500   2614.3989  -2583.3989      86.5737     152.0244     131.1169       0.0932       0.3637       0.1147       2.4727       0.7481       0.5112
   3343.8750   2614.4214  -2583.4214      86.8879     153.4601     132.1634       0.1117       0.3734       0.1183       2.4667       0.7567       0.5216
   3344.0000   2614.4438  -2583.4438      87.0920     154.5603     133.6141       0.1724       0.3820       0.1270       2.4501       0.7067       0.5361
   3344.1250   2614.4661  -2583.4661      87.2939     157.7528     135.7231       0.2806       0.3790       0.1368       2.4314       0.6566       0.5572
   3344.2500   2614.4885  -2583.4885      86.0451     172.2143     135.7404       0.4413       0.3790       0.1458       2.4142       0.6202       0.5574
   3344.3750   2614.5110  -2583.5110      86.3535     169.4113     135.7578       0.5304       0.3840       0.1495       2.4070       0.6021       0.5576
   3344.5000   2614.5334  -2583.5334      86.9198     167.1796     135.6307       0.6224       0.3838       0.1527       2.4007       0.5863       0.5563
   3344.6250   2614.5557  -2583.5557      86.5642     167.2222     135.4280       0.7164       0.3788       0.1555       2.3952       0.5736       0.5441
   3344.7500   2614.5781  -2583.5781      85.2108     166.4160     135.0743       0.8116       0.3725       0.1580       2.3902       0.5598       0.5270
   3344.8750   2614.6006  -2583.6006      84.6550     159.3310     134.1810       1.0032       0.3700       0.1623       2.3820       0.5435       0.5143
   3345.0000   2614.6228  -2583.6228      84.8409     161.1629     135.2363       0.9394       0.3880       0.1609       2.3845       0.5464       0.5524
   3345.1250   2614.6453  -2583.6453      84.6126     165.0454     134.8611       0.6556       0.3971       0.1537       2.3984       0.5752       0.5486
   3345.2500   2614.6677  -2583.6677      84.4802     165.3994     134.0808       0.3625       0.3995       0.1419       2.4211       0.6222       0.5408
   3345.3750   2614.6902  -2583.6902      84.3757     162.3203     133.7160       0.1882       0.3965       0.1288       2.4462       0.6836       0.5372
   3345.5000   2614.7124  -2583.7124      84.0306     159.9137     134.2669       0.1122       0.3919       0.1184       2.4661       0.7418       0.5427
   3345.6250   2614.7349  -2583.7349      83.9198     165.0230     135.6426       0.0863       0.4075       0.1131       2.4751       0.7408       0.5564
   3345.7500   2614.7573  -2583.7573      82.4675     162.5686     137.8878       0.0858       0.4112       0.1130       2.4753       0.7387       0.5789
   3345.8750   2614.7798  -2583.7798      81.7850     161.1214     138.1322       0.1103       0.4098       0.1180       2.4666       0.7389       0.5813
   3346.0000   2614.8020  -2583.8020      81.7869     159.7626     137.5763       0.1575       0.3954       0.1252       2.4528       0.6934       0.5758
   3346.1250   2614.8245  -2583.8245      81.5951     157.9312     137.2142       0.2304       0.3740       0.1328       2.4380       0.6488       0.5721
   3346.2500   2614.8469  -2583.8469      79.8657     157.2487     136.7881       0.3142       0.3698       0.1390       2.4260       0.6183       0.5566
   3346.3750   2614.8691  -2583.8691      78.0819     152.5128     134.0886       0.3077       0.3624       0.1386       2.4268       0.6206       0.5409
   3346.5000   2614.8916  -2583.8916      78.0000     147.5906     133.2733       0.2576       0.3703       0.1350       2.4336       0.6352       0.5327
   3346.6250   2614.9141  -2583.9141      77.8398     147.8080     133.7318       0.1876       0.3711       0.1287       2.4457       0.6629       0.5373
   3346.7500   2614.9365  -2583.9365      78.2399     151.6535     134.7666       0.1302       0.3712       0.1214       2.4595       0.6972       0.5477
   3346.8750   2614.9587  -2583.9587      79.9176     154.6346     135.5220       0.0952       0.3793       0.1151       2.4713       0.7283       0.5552
   3347.0000   2614.9812  -2583.9812      79.9890     153.0083     134.6997       0.0731       0.3678       0.1098       2.4804       0.7251       0.5470
   3347.1250   2615.0037  -2584.0037      79.9262     152.2527     132.2351       0.0685       0.3754       0.1085       2.4833       0.7478       0.5223
   3347.2500   2615.0259  -2584.0259      80.9335     153.1893     130.8602       0.0577       0.3891       0.1051       2.4904       0.7902       0.5086
   3347.3750   2615.0483  -2584.0483      81.6034     156.9526     129.9790       0.0263       0.3982       0.0893       2.5215       0.9702       0.4998
   3347.5000   2615.0708  -2584.0708      81.4717     161.7176     128.2913       0.0036       0.3975       0.0496       2.5880       1.0000       0.4829
