#------------------------------------------------------------------------------
#
#   Created by  : [OpenWorks] Log Export Utility (LEXP)
#   Created on  : 2007-05-07 11:56:58
#   Project     : NORNE
#   User        : JSE
#   Interpreter : JSE
#
#------------------------------------------------------------------------------
~VERSION INFORMATION
VERS. 2.0 : CWLS Log ASCII Standard - version 2.0
WRAP.  NO : One line per depth step
~WELL INFORMATION
#MNEMONIC   .UNIT                                           VALUE :DESCRIPTION
#------------------------------------------------------------------------------
STRT        .M                                          1300.1250 :START DEPTH
STOP        .M                                          3919.5000 :STOP DEPTH
STEP        .M                                             0.1250 :STEP
NULL        .                                           -999.2500 :NULL VALUE
COMP        .                                             STATOIL :COMPANY
WELL        .                                      	Norne1 	:WELL
FLD         .                                             UNKNOWN :FIELD
LOC         .                                             UNKNOWN :LOCATION
CNTY        .                                             UNKNOWN :COUNTY
STAT        .                                              Norway :STATE
CTRY        .                                              Norway :COUNTRY
SRVC        .                                             UNKNOWN :SERVICE COMPANY
DATE        .                                             UNKNOWN :LOG DATE
UWI         .                                   NO 6608/10-B-4 AH :UNIQUE WELL ID
XCOORD      .                                       457114.155170 :SURFACE X
YCOORD      .                                      7322136.377520 :SURFACE Y
LAT         .                                           66.015409 :LATITUDE
LON         .                                            8.054547 :LONGITUDE
ELEV        .M                                            31.0000 :SURFACE ELEV
ELEV_TYPE   .                                                  KB :ELEV TYPE
~CURVE INFORMATION
#MNEMONIC.UNIT        API CODE       : CURVE DESCRIPTION
#------------------------------------------------------------------------------
DEPTH    .M                          : Measured Depth
TVD      .M                          : True Vertical Depth (TVD)
TVDSS    .M                          : True Vertical Depth (TVDSS)
DTC       .us/ft       UNKNOWN        : DTC:CURVE_LOADER:rC::v0 (auto-composite)
DTS      .us/ft       UNKNOWN        : DTS:CURVE_LOADER:rC::v0 (auto-composite)
GR       .API         UNKNOWN        : GR:CURVE_LOADER:rC::v0 (auto-composite)
KLOGH    .mD          UNKNOWN        : KLOGH:UNKNOWN:rC::v0 (auto-composite)
NPHI     .v/v_decimal UNKNOWN        : NPHI:PETROWORKS:rC:NONE:v2 
PHIF     .v/v_decimal UNKNOWN        : PHIF:UNKNOWN:rC::v0 (auto-composite)
RHOB     .g/cm3       UNKNOWN        : RHOB:PETROWORKS:rC:NONE:v3 
SW       .v/v_decimal UNKNOWN        : SW:UNKNOWN:rC::v0 (auto-composite)
VSH      .v/v_decimal UNKNOWN        : VSH:UNKNOWN:rC::v0 (auto-composite)
~A     DEPTH         TVD       TVDSS           DT          DTS           GR        KLOGH         NPHI         PHIF         RHOB           SW          VSH
# ...
   3393.1250   2621.0288  -2590.0288      92.8582     176.8848      70.0403      21.1437       0.2620       0.2233       2.2554       0.2370       0.1910
   3393.2500   2621.0422  -2590.0422      94.2265     176.4941      70.1520      21.1638       0.2665       0.2233       2.2553       0.2363       0.2000
   3393.3750   2621.0559  -2590.0559      95.4982     176.0463      70.1056      24.0101       0.2702       0.2258       2.2504       0.2318       0.2011
   3393.5000   2621.0693  -2590.0693      96.1510     179.8176      69.9565      30.4747       0.2706       0.2306       2.2411       0.2254       0.1950
   3393.6250   2621.0830  -2590.0830      85.6336     175.2876      69.8074      42.0414       0.2657       0.2371       2.2288       0.2203       0.1734
   3393.7500   2621.0964  -2590.0964      89.0695     175.6430      69.4888      48.2309       0.2699       0.2398       2.2235       0.2174       0.1768
   3393.8750   2621.1099  -2590.1099      91.7131     175.8050      70.5388      49.6362       0.2704       0.2404       2.2225       0.2189       0.1768
   3394.0000   2621.1235  -2590.1235      92.5291     175.8445      72.0212      47.0030       0.2687       0.2393       2.2247       0.2213       0.1752
   3394.1250   2621.1370  -2590.1370      94.0659     176.2058      72.6963      43.4185       0.2691       0.2377       2.2277       0.2216       0.1790
   3394.2500   2621.1506  -2590.1506      98.5011     175.1859      72.1705      45.3485       0.2749       0.2386       2.2260       0.2213       0.1889
   3394.3750   2621.1641  -2590.1641     101.0185     176.0755      71.6447      43.5306       0.2726       0.2377       2.2276       0.2219       0.1859
   3394.5000   2621.1775  -2590.1775     100.5301     176.0738      70.6347      43.7907       0.2745       0.2379       2.2274       0.2219       0.1894
   3394.6250   2621.1912  -2590.1912     100.1848     176.1889      69.9935      45.2134       0.2672       0.2385       2.2261       0.2207       0.1736
   3394.7500   2621.2046  -2590.2046     100.4452     176.4022      69.8267      48.0892       0.2557       0.2397       2.2237       0.2187       0.1485
   3394.8750   2621.2183  -2590.2183     100.2298     176.0726      69.7272      54.0315       0.2547       0.2421       2.2192       0.2161       0.1422
   3395.0000   2621.2317  -2590.2317     101.9545     175.7772      69.6278      66.7997       0.2514       0.2463       2.2110       0.2116       0.1279
   3395.1250   2621.2451  -2590.2451      97.7107     176.1988      71.9631      78.1643       0.2640       0.2495       2.2049       0.2090       0.1474
   3395.2500   2621.2588  -2590.2588      95.3488     176.2349      72.4526      85.8775       0.2771       0.2514       2.2014       0.2081       0.1702
   3395.3750   2621.2722  -2590.2722      94.0306     176.0446      72.1835      88.2554       0.2869       0.2519       2.2004       0.2083       0.1887
   3395.5000   2621.2859  -2590.2859      92.9411     175.8630      72.3398      87.6031       0.2907       0.2518       2.2006       0.2082       0.1966
   3395.6250   2621.2993  -2590.2993      94.0870     175.6260      72.4951      91.1922       0.2850       0.2526       2.1990       0.2059       0.1837
   3395.7500   2621.3127  -2590.3127      94.0244     176.3270      72.8096      99.3662       0.2743       0.2543       2.1957       0.2048       0.1592
   3395.8750   2621.3264  -2590.3264      94.2751     176.0557      75.8727     104.6639       0.2720       0.2553       2.1937       0.2040       0.1527
   3396.0000   2621.3398  -2590.3398      94.6957     175.7998      77.5604     113.2810       0.2739       0.2569       2.1907       0.2029       0.1536
   3396.1250   2621.3535  -2590.3535      94.5472     175.7801      77.3715     126.9613       0.2783       0.2592       2.1863       0.2010       0.1582
   3396.2500   2621.3669  -2590.3669      93.6069     175.8668      76.5284     143.7825       0.2846       0.2617       2.1815       0.1986       0.1664
   3396.3750   2621.3804  -2590.3804      95.3940     176.4083      74.4872     159.8744       0.2895       0.2638       2.1774       0.1967       0.1724
   3396.5000   2621.3940  -2590.3940      97.0208     176.8433      75.8173     168.0656       0.2893       0.2648       2.1755       0.1967       0.1700
   3396.6250   2621.4075  -2590.4075      98.3826     176.8879      77.0265     180.8364       0.2896       0.2663       2.1727       0.1963       0.1679
   3396.7500   2621.4211  -2590.4211      98.8053     177.4033      78.0339     202.7264       0.2877       0.2686       2.1683       0.1939       0.1600
   3396.8750   2621.4346  -2590.4346      98.1889     178.3415      78.0508     232.1141       0.2846       0.2713       2.1630       0.1902       0.1490
   3397.0000   2621.4480  -2590.4480      97.2813     178.3749      75.1744     257.2282       0.2868       0.2733       2.1589       0.1874       0.1496
   3397.1250   2621.4617  -2590.4617      97.5160     178.1476      73.7450     274.0912       0.2802       0.2746       2.1565       0.1862       0.1342
   3397.2500   2621.4751  -2590.4751      98.2640     178.2377      72.4481     282.6571       0.2830       0.2752       2.1553       0.1866       0.1386
   3397.3750   2621.4888  -2590.4888      99.0615     178.1109      71.6472     292.8286       0.2835       0.2759       2.1540       0.1868       0.1383
   3397.5000   2621.5022  -2590.5022      99.8347     177.9955      71.1648     305.7283       0.2823       0.2768       2.1524       0.1864       0.1343
   3397.6250   2621.5156  -2590.5156     100.6299     178.5214      70.5329     320.9720       0.2831       0.2778       2.1505       0.1855       0.1342
   3397.7500   2621.5293  -2590.5293     101.3355     180.6301      69.0935     349.0912       0.2839       0.2794       2.1472       0.1836       0.1328
   3397.8750   2621.5427  -2590.5427     101.3250     179.7397      68.8424     365.1226       0.2909       0.2803       2.1455       0.1828       0.1450
   3398.0000   2621.5564  -2590.5564     101.3668     179.7772      69.1315     359.1404       0.2995       0.2800       2.1462       0.1840       0.1627
   3398.1250   2621.5698  -2590.5698     101.2725     180.4706      69.6026     341.5405       0.2967       0.2790       2.1482       0.1862       0.1589
   3398.2500   2621.5833  -2590.5833     101.0701     180.7596      69.4477     326.7052       0.2851       0.2781       2.1500       0.1878       0.1373
   3398.3750   2621.5969  -2590.5969     101.0518     179.5415      67.7924     326.1680       0.2818       0.2781       2.1500       0.1869       0.1308
   3398.5000   2621.6104  -2590.6104     101.0821     179.8057      67.9207     326.0176       0.2777       0.2781       2.1500       0.1867       0.1226
   3398.6250   2621.6240  -2590.6240     101.0904     180.4200      67.9950     319.9902       0.2818       0.2777       2.1507       0.1866       0.1316
   3398.7500   2621.6375  -2590.6375     101.0823     180.6353      68.0591     296.9597       0.2845       0.2762       2.1535       0.1874       0.1397
   3398.8750   2621.6509  -2590.6509     100.9380     180.7980      68.6844     278.4537       0.2860       0.2749       2.1560       0.1880       0.1450
   3399.0000   2621.6646  -2590.6646     100.6370     181.1883      69.8268     276.1301       0.2870       0.2747       2.1563       0.1878       0.1473
   3399.1250   2621.6780  -2590.6780     100.4991     181.0414      69.5619     264.7294       0.2812       0.2739       2.1579       0.1887       0.1373
   3399.2500   2621.6917  -2590.6917     100.6449     181.0257      69.7712     281.1670       0.2857       0.2751       2.1556       0.1879       0.1442
   3399.3750   2621.7051  -2590.7051     100.5289     180.6914      69.9136     281.2139       0.2846       0.2751       2.1556       0.1877       0.1418
   3399.5000   2621.7185  -2590.7185     100.3891     180.4846      70.0271     281.2896       0.2877       0.2751       2.1556       0.1873       0.1482
