#------------------------------------------------------------------------------
#
#   Created by  : [OpenWorks] Log Export Utility (LEXP)
#   Created on  : 2007-05-07 11:56:58
#   Project     : NORNE
#   User        : JSE
#   Interpreter : JSE
#
#------------------------------------------------------------------------------
~VERSION INFORMATION
VERS. 2.0 : CWLS Log ASCII Standard - version 2.0
WRAP.  NO : One line per depth step
~WELL INFORMATION
#MNEMONIC   .UNIT                                           VALUE :DESCRIPTION
#------------------------------------------------------------------------------
STRT        .M                                          1300.1250 :START DEPTH
STOP        .M                                          3919.5000 :STOP DEPTH
STEP        .M                                             0.1250 :STEP
NULL        .                                           -999.2500 :NULL VALUE
COMP        .                                             STATOIL :COMPANY
WELL        .                                      	Norne1 	:WELL
FLD         .                                             UNKNOWN :FIELD
LOC         .                                             UNKNOWN :LOCATION
CNTY        .                                             UNKNOWN :COUNTY
STAT        .                                              Norway :STATE
CTRY        .                                              Norway :COUNTRY
SRVC        .                                             UNKNOWN :SERVICE COMPANY
DATE        .                                             UNKNOWN :LOG DATE
UWI         .                                   NO 6608/10-B-4 AH :UNIQUE WELL ID
XCOORD      .                                       457114.155170 :SURFACE X
YCOORD      .                                      7322136.377520 :SURFACE Y
LAT         .                                           66.015409 :LATITUDE
LON         .                                            8.054547 :LONGITUDE
ELEV        .M                                            31.0000 :SURFACE ELEV
ELEV_TYPE   .                                                  KB :ELEV TYPE
~CURVE INFORMATION
#MNEMONIC.UNIT        API CODE       : CURVE DESCRIPTION
#------------------------------------------------------------------------------
DEPTH    .M                          : Measured Depth
TVD      .M                          : True Vertical Depth (TVD)
TVDSS    .M                          : True Vertical Depth (TVDSS)
DTC       .us/ft       UNKNOWN        : DTC:CURVE_LOADER:rC::v0 (auto-composite)
DTS      .us/ft       UNKNOWN        : DTS:CURVE_LOADER:rC::v0 (auto-composite)
GR       .API         UNKNOWN        : GR:CURVE_LOADER:rC::v0 (auto-composite)
KLOGH    .mD          UNKNOWN        : KLOGH:UNKNOWN:rC::v0 (auto-composite)
NPHI     .v/v_decimal UNKNOWN        : NPHI:PETROWORKS:rC:NONE:v2 
PHIF     .v/v_decimal UNKNOWN        : PHIF:UNKNOWN:rC::v0 (auto-composite)
RHOB     .g/cm3       UNKNOWN        : RHOB:PETROWORKS:rC:NONE:v3 
SW       .v/v_decimal UNKNOWN        : SW:UNKNOWN:rC::v0 (auto-composite)
VSH      .v/v_decimal UNKNOWN        : VSH:UNKNOWN:rC::v0 (auto-composite)
~A     DEPTH         TVD       TVDSS           DT          DTS           GR        KLOGH         NPHI         PHIF         RHOB           SW          VSH
# ...
   3490.6250   2635.4395  -2604.4395     102.2954     173.0302      66.7182      56.5714       0.2533       0.2430       2.2168       0.2064       0.1380
   3490.7500   2635.4639  -2604.4639     102.3540     173.0858      66.2088      64.5336       0.2592       0.2456       2.2117       0.2035       0.1450
   3490.8750   2635.4885  -2604.4885     102.1350     173.1520      64.8600      74.7720       0.2600       0.2486       2.2060       0.2004       0.1412
   3491.0000   2635.5129  -2604.5129     101.5395     172.8645      64.9956      69.9632       0.2518       0.2473       2.2085       0.2000       0.1273
   3491.1250   2635.5374  -2604.5374     101.1472     172.7276      65.9935      57.4224       0.2532       0.2433       2.2161       0.2036       0.1374
   3491.2500   2635.5618  -2604.5618     100.8044     172.6405      67.2259      46.5516       0.2578       0.2391       2.2242       0.2076       0.1542
   3491.3750   2635.5862  -2604.5862     100.4006     172.4467      67.0321      39.0099       0.2627       0.2356       2.2310       0.2111       0.1703
   3491.5000   2635.6108  -2604.6108      99.9366     172.0664      64.4941      33.9438       0.2662       0.2328       2.2364       0.2149       0.1449
   3491.6250   2635.6353  -2604.6353      99.7913     171.8645      64.2123      31.1270       0.2596       0.2310       2.2397       0.2157       0.1421
   3491.7500   2635.6597  -2604.6597      99.4427     171.2551      63.9304      25.9278       0.2538       0.2274       2.2467       0.2189       0.1393
   3491.8750   2635.6841  -2604.6841      99.5034     170.6621      64.3374      21.0842       0.2497       0.2232       2.2547       0.2230       0.1434
   3492.0000   2635.7085  -2604.7085      99.6314     170.2286      66.0298      16.7078       0.2465       0.2186       2.2636       0.2283       0.1603
   3492.1250   2635.7332  -2604.7332      99.5993     170.0277      67.0218      13.3666       0.2469       0.2141       2.2722       0.2336       0.1702
   3492.2500   2635.7576  -2604.7576      99.5293     170.0751      62.8058      11.8203       0.2580       0.2116       2.2770       0.2366       0.1281
   3492.3750   2635.7820  -2604.7820      99.9863     170.1424      62.5623      12.0963       0.2588       0.2121       2.2762       0.2373       0.1256
   3492.5000   2635.8064  -2604.8064     100.0027     170.0410      62.3191      14.2157       0.2610       0.2153       2.2700       0.2347       0.1232
   3492.6250   2635.8308  -2604.8308      99.5298     170.0832      62.7934      17.2507       0.2562       0.2192       2.2626       0.2315       0.1279
   3492.7500   2635.8552  -2604.8552      98.8910     170.2116      63.6466      21.3825       0.2512       0.2235       2.2543       0.2262       0.1365
   3492.8750   2635.8799  -2604.8799      98.4674     170.5242      64.3293      27.8334       0.2548       0.2288       2.2441       0.2195       0.1433
   3493.0000   2635.9043  -2604.9043      98.3083     172.2037      65.0993      38.2699       0.2597       0.2352       2.2318       0.2125       0.1510
   3493.1250   2635.9287  -2604.9287      98.1406     172.6459      65.8681      53.6499       0.2600       0.2419       2.2187       0.2052       0.1534
   3493.2500   2635.9531  -2604.9531      97.8142     173.4387      63.6290      71.9993       0.2618       0.2478       2.2074       0.1994       0.1363
   3493.3750   2635.9775  -2604.9775      97.6549     174.0625      63.3584      89.9387       0.2650       0.2523       2.1987       0.1948       0.1336
   3493.5000   2636.0022  -2605.0022      97.6877     174.5228      65.9541     104.4997       0.2685       0.2553       2.1929       0.1909       0.1461
   3493.6250   2636.0266  -2605.0266      97.6372     175.4131      67.6257     115.8845       0.2698       0.2574       2.1888       0.1875       0.1451
   3493.7500   2636.0510  -2605.0510      97.8965     175.6716      67.5863     128.3627       0.2665       0.2594       2.1847       0.1835       0.1349
   3493.8750   2636.0754  -2605.0754      98.1048     175.3264      67.5470     105.1580       0.2612       0.2554       2.1923       0.1855       0.1315
   3494.0000   2636.0999  -2605.0999      98.8821     175.4176      68.6212      65.2952       0.2580       0.2459       2.2108       0.1954       0.1424
   3494.1250   2636.1245  -2605.1245      99.9214     175.8573      69.3184      31.5363       0.2593       0.2313       2.2391       0.2147       0.1714
   3494.2500   2636.1489  -2605.1489     100.7013     175.9917      68.4127      13.5806       0.2634       0.2144       2.2720       0.2405       0.1841
   3494.3750   2636.1733  -2605.1733     100.9286     174.6691      67.3569       7.6402       0.2601       0.2029       2.2942       0.2549       0.1736
   3494.5000   2636.1978  -2605.1978     100.2757     173.5052      67.9391       7.2350       0.2687       0.2018       2.2958       0.2472       0.1794
   3494.6250   2636.2222  -2605.2222      98.8552     172.4531      66.7634       8.7564       0.2741       0.2056       2.2881       0.2356       0.1676
   3494.7500   2636.2468  -2605.2468      98.8272     171.6623      65.7558      11.6283       0.2803       0.2113       2.2770       0.2258       0.1576
   3494.8750   2636.2712  -2605.2712      99.9115     170.9585      65.4644      15.3714       0.2840       0.2169       2.2663       0.2199       0.1546
   3495.0000   2636.2957  -2605.2957     100.1216     170.0624      65.2023      19.5648       0.2776       0.2217       2.2571       0.2169       0.1520
   3495.1250   2636.3201  -2605.3201     100.3850     169.9852      65.2443      25.8555       0.2735       0.2273       2.2464       0.2124       0.1524
   3495.2500   2636.3445  -2605.3445     101.5798     169.7644      64.9746      36.7972       0.2737       0.2344       2.2329       0.2069       0.1497
   3495.3750   2636.3691  -2605.3691     102.3884     170.5528      65.2431      48.6377       0.2703       0.2400       2.2222       0.2016       0.1524
   3495.5000   2636.3936  -2605.3936     102.8874     171.3240      65.8457      62.1177       0.2684       0.2449       2.2128       0.1980       0.1585
   3495.6250   2636.4180  -2605.4180     103.3592     171.3240      66.4699      78.6323       0.2698       0.2496       2.2038       0.1954       0.1592
   3495.7500   2636.4424  -2605.4424     103.8480     171.3240      67.0990      91.3575       0.2640       0.2526       2.1980       0.1934       0.1422
   3495.8750   2636.4668  -2605.4668     103.7919     171.3240      65.3470     101.7620       0.2648       0.2548       2.1939       0.1922       0.1398
   3496.0000   2636.4912  -2605.4912     103.5420     171.4769      65.0661     100.9742       0.2555       0.2546       2.1943       0.1927       0.1215
   3496.1250   2636.5159  -2605.5159     103.6589     171.6885      65.5201      93.2038       0.2514       0.2530       2.1973       0.1927       0.1161
   3496.2500   2636.5403  -2605.5403     103.8658     171.9106      66.2128      82.9027       0.2535       0.2506       2.2016       0.1926       0.1248
   3496.3750   2636.5647  -2605.5647     103.5958     172.1397      67.1001      73.3583       0.2562       0.2482       2.2063       0.1936       0.1346
   3496.5000   2636.5891  -2605.5891     103.6204     172.4285      69.4816      68.7157       0.2669       0.2469       2.2087       0.1938       0.1584
   3496.6250   2636.6135  -2605.6135     103.5607     172.5821      69.7853      66.3692       0.2629       0.2462       2.2097       0.1891       0.1518
   3496.7500   2636.6382  -2605.6382     103.3992     172.8708      69.3126      64.3827       0.2638       0.2456       2.2111       0.1927       0.1546
   3496.8750   2636.6626  -2605.6626     102.9211     173.1248      68.5851      61.8757       0.2638       0.2448       2.2127       0.1951       0.1560
   3497.0000   2636.6870  -2605.6870     102.0617     173.3011      68.1344      59.5061       0.2621       0.2440       2.2140       0.1919       0.1542
