#------------------------------------------------------------------------------
#
#   Created by  : [OpenWorks] Log Export Utility (LEXP)
#   Created on  : 2007-05-07 11:56:58
#   Project     : NORNE
#   User        : JSE
#   Interpreter : JSE
#
#------------------------------------------------------------------------------
~VERSION INFORMATION
VERS. 2.0 : CWLS Log ASCII Standard - version 2.0
WRAP.  NO : One line per depth step
~WELL INFORMATION
#MNEMONIC   .UNIT                                           VALUE :DESCRIPTION
#------------------------------------------------------------------------------
STRT        .M                                          1300.1250 :START DEPTH
STOP        .M                                          3919.5000 :STOP DEPTH
STEP        .M                                             0.1250 :STEP
NULL        .                                           -999.2500 :NULL VALUE
COMP        .                                             STATOIL :COMPANY
WELL        .                                      	Norne1 	:WELL
FLD         .                                             UNKNOWN :FIELD
LOC         .                                             UNKNOWN :LOCATION
CNTY        .                                             UNKNOWN :COUNTY
STAT        .                                              Norway :STATE
CTRY        .                                              Norway :COUNTRY
SRVC        .                                             UNKNOWN :SERVICE COMPANY
DATE        .                                             UNKNOWN :LOG DATE
UWI         .                                   NO 6608/10-B-4 AH :UNIQUE WELL ID
XCOORD      .                                       457114.155170 :SURFACE X
YCOORD      .                                      7322136.377520 :SURFACE Y
LAT         .                                           66.015409 :LATITUDE
LON         .                                            8.054547 :LONGITUDE
ELEV        .M                                            31.0000 :SURFACE ELEV
ELEV_TYPE   .                                                  KB :ELEV TYPE
~CURVE INFORMATION
#MNEMONIC.UNIT        API CODE       : CURVE DESCRIPTION
#------------------------------------------------------------------------------
DEPTH    .M                          : Measured Depth
TVD      .M                          : True Vertical Depth (TVD)
TVDSS    .M                          : True Vertical Depth (TVDSS)
DTC       .us/ft       UNKNOWN        : DTC:CURVE_LOADER:rC::v0 (auto-composite)
DTS      .us/ft       UNKNOWN        : DTS:CURVE_LOADER:rC::v0 (auto-composite)
GR       .API         UNKNOWN        : GR:CURVE_LOADER:rC::v0 (auto-composite)
KLOGH    .mD          UNKNOWN        : KLOGH:UNKNOWN:rC::v0 (auto-composite)
NPHI     .v/v_decimal UNKNOWN        : NPHI:PETROWORKS:rC:NONE:v2 
PHIF     .v/v_decimal UNKNOWN        : PHIF:UNKNOWN:rC::v0 (auto-composite)
RHOB     .g/cm3       UNKNOWN        : RHOB:PETROWORKS:rC:NONE:v3 
SW       .v/v_decimal UNKNOWN        : SW:UNKNOWN:rC::v0 (auto-composite)
VSH      .v/v_decimal UNKNOWN        : VSH:UNKNOWN:rC::v0 (auto-composite)
~A     DEPTH         TVD       TVDSS           DT          DTS           GR        KLOGH         NPHI         PHIF         RHOB           SW          VSH
# ...
   3445.1250   2627.3562  -2596.3562     103.5695     176.3356      65.4140     166.9209       0.2706       0.2647       2.1750       0.1854       0.1333
   3445.2500   2627.3762  -2596.3762     104.1592     176.6384      65.5590     174.2834       0.2716       0.2655       2.1734       0.1857       0.1337
   3445.3750   2627.3960  -2596.3960     104.4243     176.8532      65.8214     170.0510       0.2720       0.2650       2.1743       0.1864       0.1353
   3445.5000   2627.4160  -2596.4160     104.2488     177.0311      66.0205     160.5635       0.2725       0.2639       2.1765       0.1871       0.1385
   3445.6250   2627.4358  -2596.4358     103.9877     177.1988      66.1394     152.1503       0.2738       0.2628       2.1786       0.1880       0.1430
   3445.7500   2627.4558  -2596.4558     103.9574     177.3831      66.2586     131.2385       0.2722       0.2598       2.1844       0.1910       0.1451
   3445.8750   2627.4756  -2596.4756     103.4636     177.6332      65.1102     108.9782       0.2778       0.2561       2.1915       0.1945       0.1511
   3446.0000   2627.4956  -2596.4956     103.1353     177.4641      64.0864      92.5221       0.2734       0.2528       2.1978       0.1970       0.1409
   3446.1250   2627.5154  -2596.5154     103.1063     177.2864      63.5118      85.2284       0.2651       0.2512       2.2010       0.1984       0.1351
   3446.2500   2627.5354  -2596.5354     103.1630     177.2969      63.3141      86.5926       0.2611       0.2515       2.2004       0.1988       0.1331
   3446.3750   2627.5552  -2596.5552     102.7420     177.1030      63.1184      92.1873       0.2660       0.2528       2.1980       0.1978       0.1310
   3446.5000   2627.5752  -2596.5752     102.2010     176.8818      61.9830      86.5768       0.2710       0.2515       2.2005       0.1995       0.1198
   3446.6250   2627.5950  -2596.5950     101.8664     176.8600      62.1541      82.6813       0.2765       0.2506       2.2023       0.2009       0.1215
   3446.7500   2627.6150  -2596.6150     101.5507     176.7312      62.4874      80.1716       0.2705       0.2500       2.2035       0.2012       0.1249
   3446.8750   2627.6348  -2596.6348     101.2697     176.7529      62.6904      81.6064       0.2619       0.2503       2.2028       0.2017       0.1269
   3447.0000   2627.6548  -2596.6548     101.0681     177.2306      62.9078      87.3945       0.2640       0.2517       2.2002       0.2008       0.1291
   3447.1250   2627.6746  -2596.6746     100.6684     177.4722      63.2191      83.5412       0.2640       0.2508       2.2019       0.2001       0.1322
   3447.2500   2627.6946  -2596.6946     100.0543     178.0338      63.1184      79.8332       0.2700       0.2499       2.2035       0.1992       0.1312
   3447.3750   2627.7144  -2596.7144      99.7275     178.5198      63.2247      70.9475       0.2697       0.2475       2.2080       0.2005       0.1322
   3447.5000   2627.7344  -2596.7344      99.5523     178.7656      63.4949      60.4847       0.2649       0.2443       2.2141       0.2031       0.1349
   3447.6250   2627.7542  -2596.7542      99.4366     178.8567      63.8279      50.1819       0.2613       0.2406       2.2213       0.2066       0.1383
   3447.7500   2627.7742  -2596.7742      99.4356     179.1209      64.1276      39.8313       0.2662       0.2360       2.2302       0.2109       0.1413
   3447.8750   2627.7939  -2596.7939      99.3428     179.5230      63.5980      34.3430       0.2720       0.2330       2.2360       0.2143       0.1360
   3448.0000   2627.8140  -2596.8140      99.2159     179.4919      64.7851      32.2813       0.2797       0.2318       2.2383       0.2156       0.1478
   3448.1250   2627.8337  -2596.8337      99.2033     179.3608      65.5572      31.3440       0.2756       0.2312       2.2395       0.2164       0.1556
   3448.2500   2627.8538  -2596.8538      99.1605     179.2796      65.7583      30.4157       0.2661       0.2306       2.2406       0.2166       0.1576
   3448.3750   2627.8735  -2596.8735      98.8929     179.2683      65.8827      28.8631       0.2596       0.2295       2.2427       0.2179       0.1588
   3448.5000   2627.8936  -2596.8936      98.3989     179.1764      66.0071      25.9451       0.2449       0.2274       2.2468       0.2201       0.1463
   3448.6250   2627.9133  -2596.9133      97.8664     178.8636      65.8714      22.4269       0.2455       0.2245       2.2524       0.2237       0.1531
   3448.7500   2627.9333  -2596.9333      97.4719     178.3176      65.6264      19.0268       0.2519       0.2212       2.2587       0.2273       0.1563
   3448.8750   2627.9531  -2596.9531      97.1459     177.7656      65.6968      16.9611       0.2610       0.2189       2.2632       0.2311       0.1570
   3449.0000   2627.9731  -2596.9731      96.9347     177.3230      66.1104      15.8280       0.2689       0.2175       2.2659       0.2332       0.1611
   3449.1250   2627.9929  -2596.9929      96.9394     176.9053      66.7127      14.5314       0.2716       0.2158       2.2692       0.2350       0.1671
   3449.2500   2628.0129  -2597.0129      96.4175     175.6679      69.9629      13.3560       0.2659       0.2141       2.2725       0.2375       0.1996
   3449.3750   2628.0327  -2597.0327      96.7228     174.1190      70.3034      11.2222       0.2622       0.2106       2.2792       0.2425       0.2030
   3449.5000   2628.0527  -2597.0527      96.6625     173.0946      70.7085       8.9862       0.2620       0.2062       2.2877       0.2454       0.2071
   3449.6250   2628.0725  -2597.0725      96.4350     172.4807      71.2934       7.3121       0.2627       0.2020       2.2953       0.2459       0.2129
   3449.7500   2628.0925  -2597.0925      96.3595     171.9886      71.6363       6.1101       0.2626       0.1984       2.3020       0.2459       0.2164
   3449.8750   2628.1123  -2597.1123      96.0633     171.6186      71.9793       4.6111       0.2659       0.1928       2.3127       0.2501       0.2198
   3450.0000   2628.1323  -2597.1323      95.8537     171.5537      69.8392       3.5773       0.2628       0.1877       2.3225       0.2591       0.1984
   3450.1250   2628.1521  -2597.1521      95.8592     171.6132      68.4563       3.1843       0.2583       0.1854       2.3275       0.2716       0.1846
   3450.2500   2628.1721  -2597.1721      95.9054     171.8105      67.9310       3.2504       0.2529       0.1858       2.3268       0.2741       0.1793
   3450.3750   2628.1919  -2597.1919      95.9404     172.0669      67.9201       3.6704       0.2503       0.1882       2.3220       0.2666       0.1792
   3450.5000   2628.2119  -2597.2119      95.9882     172.2526      67.7624       4.3011       0.2546       0.1914       2.3158       0.2604       0.1776
   3450.6250   2628.2317  -2597.2317      95.8265     172.3683      66.1868       4.6044       0.2612       0.1928       2.3133       0.2616       0.1619
   3450.7500   2628.2517  -2597.2517      95.9571     172.0771      66.3305       5.2017       0.2677       0.1952       2.3087       0.2599       0.1633
   3450.8750   2628.2715  -2597.2715      95.9655     171.8808      66.3712       6.0985       0.2711       0.1984       2.3027       0.2580       0.1637
   3451.0000   2628.2915  -2597.2915      95.8214     171.5934      66.2294       7.2533       0.2724       0.2019       2.2961       0.2555       0.1623
   3451.1250   2628.3113  -2597.3113      95.5910     171.0670      66.1589       8.4161       0.2716       0.2048       2.2905       0.2525       0.1616
   3451.2500   2628.3313  -2597.3313      95.3530     170.4830      66.3470       8.9760       0.2650       0.2061       2.2880       0.2510       0.1635
   3451.3750   2628.3511  -2597.3511      95.4911     169.8921      66.5343       9.5653       0.2625       0.2074       2.2855       0.2493       0.1653
   3451.5000   2628.3711  -2597.3711      95.3957     169.4691      68.2178       9.6931       0.2594       0.2077       2.2850       0.2483       0.1822
