#------------------------------------------------------------------------------
#
#   Created by  : [OpenWorks] Log Export Utility (LEXP)
#   Created on  : 2007-05-07 11:56:58
#   Project     : NORNE
#   User        : JSE
#   Interpreter : JSE
#
#------------------------------------------------------------------------------
~VERSION INFORMATION
VERS. 2.0 : CWLS Log ASCII Standard - version 2.0
WRAP.  NO : One line per depth step
~WELL INFORMATION
#MNEMONIC   .UNIT                                           VALUE :DESCRIPTION
#------------------------------------------------------------------------------
STRT        .M                                          1300.1250 :START DEPTH
STOP        .M                                          3919.5000 :STOP DEPTH
STEP        .M                                             0.1250 :STEP
NULL        .                                           -999.2500 :NULL VALUE
COMP        .                                             STATOIL :COMPANY
WELL        .                                      	Norne1 	:WELL
FLD         .                                             UNKNOWN :FIELD
LOC         .                                             UNKNOWN :LOCATION
CNTY        .                                             UNKNOWN :COUNTY
STAT        .                                              Norway :STATE
CTRY        .                                              Norway :COUNTRY
SRVC        .                                             UNKNOWN :SERVICE COMPANY
DATE        .                                             UNKNOWN :LOG DATE
UWI         .                                   NO 6608/10-B-4 AH :UNIQUE WELL ID
XCOORD      .                                       457114.155170 :SURFACE X
YCOORD      .                                      7322136.377520 :SURFACE Y
LAT         .                                           66.015409 :LATITUDE
LON         .                                            8.054547 :LONGITUDE
ELEV        .M                                            31.0000 :SURFACE ELEV
ELEV_TYPE   .                                                  KB :ELEV TYPE
~CURVE INFORMATION
#MNEMONIC.UNIT        API CODE       : CURVE DESCRIPTION
#------------------------------------------------------------------------------
DEPTH    .M                          : Measured Depth
TVD      .M                          : True Vertical Depth (TVD)
TVDSS    .M                          : True Vertical Depth (TVDSS)
DTC       .us/ft       UNKNOWN        : DTC:CURVE_LOADER:rC::v0 (auto-composite)
DTS      .us/ft       UNKNOWN        : DTS:CURVE_LOADER:rC::v0 (auto-composite)
GR       .API         UNKNOWN        : GR:CURVE_LOADER:rC::v0 (auto-composite)
KLOGH    .mD          UNKNOWN        : KLOGH:UNKNOWN:rC::v0 (auto-composite)
NPHI     .v/v_decimal UNKNOWN        : NPHI:PETROWORKS:rC:NONE:v2 
PHIF     .v/v_decimal UNKNOWN        : PHIF:UNKNOWN:rC::v0 (auto-composite)
RHOB     .g/cm3       UNKNOWN        : RHOB:PETROWORKS:rC:NONE:v3 
SW       .v/v_decimal UNKNOWN        : SW:UNKNOWN:rC::v0 (auto-composite)
VSH      .v/v_decimal UNKNOWN        : VSH:UNKNOWN:rC::v0 (auto-composite)
~A     DEPTH         TVD       TVDSS           DT          DTS           GR        KLOGH         NPHI         PHIF         RHOB           SW          VSH
# ...
   3835.1250   2782.2285  -2751.2285      80.7026     145.3693     111.4813       0.0233       0.3079       0.0464       2.5740       1.0000       0.6066
   3835.2500   2782.3096  -2751.3096      81.1083     144.8782     111.6431       0.0185       0.3066       0.0412       2.5825       1.0000       0.6139
   3835.3750   2782.3904  -2751.3904      81.1055     144.9408     109.8749       0.0200       0.2950       0.0430       2.5795       1.0000       0.5871
   3835.5000   2782.4714  -2751.4714      80.5512     144.7857     107.8566       0.0283       0.2802       0.0507       2.5669       1.0000       0.5427
   3835.6250   2782.5525  -2751.5525      78.9773     142.3983     106.6843       0.0442       0.2699       0.0606       2.5506       1.0000       0.5030
   3835.7500   2782.6335  -2751.6335      74.7394     133.5466     106.0417       0.0553       0.2690       0.0656       2.5424       1.0000       0.4917
   3835.8750   2782.7144  -2751.7144      75.6579     121.6246     105.4001       0.0547       0.2737       0.0654       2.5428       1.0000       0.5015
   3836.0000   2782.7954  -2751.7954      77.5233     115.3733     110.5315       0.0354       0.2786       0.0557       2.5587       1.0000       0.5300
   3836.1250   2782.8765  -2751.8765      78.8397     113.3540     116.1075       0.0243       0.2602       0.0473       2.5724       1.0000       0.5093
   3836.2500   2782.9575  -2751.9575      79.3968     113.5986     118.9337       0.0225       0.2176       0.0455       2.5753       1.0000       0.4201
   3836.3750   2783.0386  -2752.0386      79.9845     114.9543     118.8566       0.0274       0.1691       0.0500       2.5680       1.0000       0.3073
   3836.5000   2783.1194  -2752.1194      81.1177     122.5876     118.7796       0.0525       0.1190       0.0644       2.5426       0.8977       0.1725
   3836.6250   2783.2004  -2752.2004      82.1739     125.6167     112.7450       0.0856       0.1064       0.0754       2.5256       0.9604       0.1238
   3836.7500   2783.2815  -2752.2815      83.6384     129.9060     110.1261       0.0859       0.1124       0.0754       2.5263       1.0000       0.1364
   3836.8750   2783.3625  -2752.3625      84.7263     135.2367     109.9701       0.0644       0.1414       0.0690       2.5368       1.0000       0.2111
   3837.0000   2783.4436  -2752.4436      84.9711     140.5855     109.7042       0.0524       0.1929       0.0644       2.5443       1.0000       0.3307
   3837.1250   2783.5244  -2752.5244      85.2403     146.5433     109.0071       0.0656       0.2470       0.0694       2.5361       1.0000       0.4374
   3837.2500   2783.6055  -2752.6055      85.5629     152.8643     108.3090       0.1698       0.2859       0.0906       2.5013       1.0000       0.4772
   3837.3750   2783.6865  -2752.6865      85.2862     153.1139     107.2787       0.4611       0.2944       0.1129       2.4648       1.0000       0.4513
   3837.5000   2783.7676  -2752.7676      84.0654     154.0555     106.3473       0.8805       0.2900       0.1273       2.4395       0.9493       0.4155
   3837.6250   2783.8486  -2752.8486      82.6230     155.7531     105.9377       1.1096       0.2855       0.1324       2.4301       0.9218       0.3970
   3837.7500   2783.9294  -2752.9294      81.9454     154.4987     106.2583       0.9711       0.2878       0.1295       2.4364       0.9625       0.4067
   3837.8750   2784.0105  -2753.0105      80.4135     153.4337     106.5784       0.4189       0.2952       0.1107       2.4684       1.0000       0.4570
   3838.0000   2784.0916  -2753.0916      79.4991     150.6253     106.8990       0.1197       0.2895       0.0828       2.5141       1.0000       0.4994
   3838.1250   2784.1726  -2753.1726      79.4807     147.7441     107.2196       0.0293       0.2837       0.0515       2.5655       1.0000       0.5483
   3838.2500   2784.2534  -2753.2534      79.7168     146.6070     107.9252       0.0075       0.2792       0.0212       2.6152       1.0000       0.5975
   3838.3750   2784.3345  -2753.3345      80.0343     147.0098     109.2237       0.0030       0.2797       0.0010       2.6506       1.0000       0.6376
   3838.5000   2784.4155  -2753.4155      81.2620     145.6610     110.9095       0.0030       0.2960       0.0010       2.6530       1.0000       0.6703
   3838.6250   2784.4966  -2753.4966      82.5988     144.9562     112.9518       0.0053       0.3076       0.0133       2.6282       1.0000       0.6695
   3838.7500   2784.5776  -2753.5776      84.0602     145.9271     114.1743       0.0170       0.3048       0.0394       2.5854       1.0000       0.6138
   3838.8750   2784.6584  -2753.6584      85.7864     147.7494     115.1856       0.0572       0.2936       0.0664       2.5411       1.0000       0.5393
   3839.0000   2784.7395  -2753.7395      87.5596     150.0353     117.9598       0.1755       0.2794       0.0913       2.5002       1.0000       0.4628
   3839.1250   2784.8206  -2753.8206      88.4100     152.5587     123.0081       0.4855       0.2688       0.1140       2.4629       1.0000       0.3979
   3839.2500   2784.9016  -2753.9016      84.7359     154.7246     121.8540       0.9099       0.2745       0.1280       2.4400       1.0000       0.3824
   3839.3750   2784.9827  -2753.9827      84.7595     156.8346     120.7905       1.1795       0.2668       0.1338       2.4305       1.0000       0.3558
   3839.5000   2785.0635  -2754.0635      85.1394     160.1675     119.7355       1.3656       0.2617       0.1371       2.4252       1.0000       0.3394
   3839.6250   2785.1445  -2754.1445      85.2716     161.6440     119.0602       1.5942       0.2545       0.1405       2.4195       1.0000       0.3184
   3839.7500   2785.2256  -2754.2256      84.9181     159.9685     118.8019       1.9176       0.2466       0.1446       2.4127       1.0000       0.2917
   3839.8750   2785.3066  -2754.3066      83.9109     156.8637     118.4596       2.1655       0.2491       0.1473       2.4083       1.0000       0.2917
   3840.0000   2785.3877  -2754.3877      81.9137     154.0809     115.9295       1.7303       0.2507       0.1423       2.4165       1.0000       0.3072
   3840.1250   2785.4685  -2754.4685      81.2797     150.5469     114.7197       0.9068       0.2584       0.1279       2.4401       1.0000       0.3503
   3840.2500   2785.5496  -2754.5496      80.8837     147.3544     114.3935       0.4563       0.2635       0.1126       2.4652       1.0000       0.3900
   3840.3750   2785.6306  -2754.6306      80.8580     144.5569     114.4616       0.2505       0.2647       0.0993       2.4872       1.0000       0.4182
   3840.5000   2785.7117  -2754.7117      81.6557     142.0026     114.1059       0.1595       0.2653       0.0892       2.5037       1.0000       0.4388
   3840.6250   2785.7927  -2754.7927      83.1901     140.2831     111.5279       0.1425       0.2735       0.0867       2.5078       1.0000       0.4600
   3840.7500   2785.8735  -2754.8735      84.3706     142.6989     111.0042       0.1386       0.2794       0.0861       2.5088       1.0000       0.4730
   3840.8750   2785.9546  -2754.9546      85.4693     144.3261     110.6082       0.1843       0.2798       0.0924       2.4984       1.0000       0.4616
   3841.0000   2786.0356  -2755.0356      86.8785     149.1290     109.9346       0.3021       0.2778       0.1034       2.4803       1.0000       0.4363
   3841.1250   2786.1167  -2755.1167      88.5953     156.1778     108.9872       0.6107       0.2786       0.1191       2.4545       1.0000       0.4077
   3841.2500   2786.1975  -2755.1975      90.3547     160.0785     108.0880       1.7395       0.2880       0.1425       2.4163       1.0000       0.3815
   3841.3750   2786.2786  -2755.2786      93.6466     166.5187     107.9048       8.5561       0.3027       0.1780       2.3581       1.0000       0.3427
   3841.5000   2786.3596  -2755.3596      93.7747     169.0508     105.7834      75.3405       0.2981       0.2264       2.2777       0.9851       0.2404
