#------------------------------------------------------------------------------
#
#   Created by  : [OpenWorks] Log Export Utility (LEXP)
#   Created on  : 2007-05-07 11:56:58
#   Project     : NORNE
#   User        : JSE
#   Interpreter : JSE
#
#------------------------------------------------------------------------------
~VERSION INFORMATION
VERS. 2.0 : CWLS Log ASCII Standard - version 2.0
WRAP.  NO : One line per depth step
~WELL INFORMATION
#MNEMONIC   .UNIT                                           VALUE :DESCRIPTION
#------------------------------------------------------------------------------
STRT        .M                                          1300.1250 :START DEPTH
STOP        .M                                          3919.5000 :STOP DEPTH
STEP        .M                                             0.1250 :STEP
NULL        .                                           -999.2500 :NULL VALUE
COMP        .                                             STATOIL :COMPANY
WELL        .                                      	Norne1 	:WELL
FLD         .                                             UNKNOWN :FIELD
LOC         .                                             UNKNOWN :LOCATION
CNTY        .                                             UNKNOWN :COUNTY
STAT        .                                              Norway :STATE
CTRY        .                                              Norway :COUNTRY
SRVC        .                                             UNKNOWN :SERVICE COMPANY
DATE        .                                             UNKNOWN :LOG DATE
UWI         .                                   NO 6608/10-B-4 AH :UNIQUE WELL ID
XCOORD      .                                       457114.155170 :SURFACE X
YCOORD      .                                      7322136.377520 :SURFACE Y
LAT         .                                           66.015409 :LATITUDE
LON         .                                            8.054547 :LONGITUDE
ELEV        .M                                            31.0000 :SURFACE ELEV
ELEV_TYPE   .                                                  KB :ELEV TYPE
~CURVE INFORMATION
#MNEMONIC.UNIT        API CODE       : CURVE DESCRIPTION
#------------------------------------------------------------------------------
DEPTH    .M                          : Measured Depth
TVD      .M                          : True Vertical Depth (TVD)
TVDSS    .M                          : True Vertical Depth (TVDSS)
DTC       .us/ft       UNKNOWN        : DTC:CURVE_LOADER:rC::v0 (auto-composite)
DTS      .us/ft       UNKNOWN        : DTS:CURVE_LOADER:rC::v0 (auto-composite)
GR       .API         UNKNOWN        : GR:CURVE_LOADER:rC::v0 (auto-composite)
KLOGH    .mD          UNKNOWN        : KLOGH:UNKNOWN:rC::v0 (auto-composite)
NPHI     .v/v_decimal UNKNOWN        : NPHI:PETROWORKS:rC:NONE:v2 
PHIF     .v/v_decimal UNKNOWN        : PHIF:UNKNOWN:rC::v0 (auto-composite)
RHOB     .g/cm3       UNKNOWN        : RHOB:PETROWORKS:rC:NONE:v3 
SW       .v/v_decimal UNKNOWN        : SW:UNKNOWN:rC::v0 (auto-composite)
VSH      .v/v_decimal UNKNOWN        : VSH:UNKNOWN:rC::v0 (auto-composite)
~A     DEPTH         TVD       TVDSS           DT          DTS           GR        KLOGH         NPHI         PHIF         RHOB           SW          VSH
# ...
   3640.1250   2678.1406  -2647.1406     104.1505     176.7210      54.4170     873.9284       0.2567       0.2916       2.1027       0.0864       0.0552
   3640.2500   2678.1863  -2647.1863     103.7872     176.7210      54.8151     719.0097       0.2529       0.2883       2.1091       0.0872       0.0576
   3640.3750   2678.2322  -2647.2322     103.4466     176.7210      54.8793     606.4080       0.2472       0.2853       2.1148       0.0900       0.0486
   3640.5000   2678.2778  -2647.2778     103.1308     176.7210      54.9435     575.3530       0.2478       0.2844       2.1166       0.0908       0.0515
   3640.6250   2678.3235  -2647.3235     103.0711     176.7210      55.9426     624.5546       0.2480       0.2858       2.1139       0.0908       0.0494
   3640.7500   2678.3694  -2647.3694     103.0569     176.7210      55.5740     689.2125       0.2471       0.2875       2.1107       0.0904       0.0444
   3640.8750   2678.4150  -2647.4150     103.0882     176.5671      54.3469     731.2922       0.2457       0.2886       2.1087       0.0901       0.0395
   3641.0000   2678.4609  -2647.4609     103.3152     176.1004      54.4850     738.2244       0.2452       0.2887       2.1085       0.0903       0.0381
   3641.1250   2678.5076  -2647.5076     103.7099     175.9199      54.6232     635.2730       0.2477       0.2861       2.1134       0.0908       0.0482
   3641.2500   2678.5581  -2647.5581     103.8209     175.4779      56.2629     596.8282       0.2523       0.2850       2.1154       0.0912       0.0622
   3641.3750   2678.6086  -2647.6086     103.6727     174.5384      58.0390     596.4509       0.2519       0.2850       2.1155       0.0914       0.0613
   3641.5000   2678.6594  -2647.6594     103.5979     173.9513      59.3861     604.9556       0.2514       0.2853       2.1150       0.0913       0.0600
   3641.6250   2678.7100  -2647.7100     103.7165     174.1242      60.0493     585.7079       0.2544       0.2847       2.1161       0.0914       0.0669
   3641.7500   2678.7605  -2647.7605     103.6490     174.2560      60.0606     504.5179       0.2560       0.2821       2.1210       0.0927       0.0749
   3641.8750   2678.8110  -2647.8110     103.7871     174.5764      60.0718     505.8808       0.2568       0.2822       2.1210       0.0939       0.0764
   3642.0000   2678.8616  -2647.8616     103.8805     174.7507      59.3608     559.4413       0.2570       0.2839       2.1178       0.0950       0.0735
   3642.1250   2678.9121  -2647.9121     103.8821     174.8616      59.2623     634.6372       0.2561       0.2861       2.1137       0.0949       0.0677
   3642.2500   2678.9626  -2647.9626     103.8631     174.9670      59.8381     700.4197       0.2564       0.2878       2.1104       0.0940       0.0652
   3642.3750   2679.0132  -2648.0132     103.9944     175.0788      60.4694     733.5809       0.2600       0.2886       2.1089       0.0935       0.0710
   3642.5000   2679.0637  -2648.0637     104.6361     175.0772      61.1008     751.9794       0.2600       0.2890       2.1081       0.0933       0.0702
   3642.6250   2679.1143  -2648.1143     104.9519     175.1317      59.1953     863.6835       0.2563       0.2914       2.1036       0.0931       0.0584
   3642.7500   2679.1650  -2648.1650     104.9606     175.2616      58.5940    1006.5576       0.2539       0.2941       2.0986       0.0938       0.0487
   3642.8750   2679.2156  -2648.2156     104.6054     175.4273      58.7300    1120.2538       0.2492       0.2959       2.0952       0.0947       0.0333
   3643.0000   2679.2661  -2648.2661     104.0851     175.6323      58.8550    1143.0605       0.2434       0.2963       2.0946       0.0948       0.0202
   3643.1250   2679.3167  -2648.3167     103.9261     175.9388      58.9459    1054.5958       0.2450       0.2949       2.0971       0.0933       0.0261
   3643.2500   2679.3672  -2648.3672     104.1879     175.8871      59.0368     928.4645       0.2433       0.2927       2.1012       0.0928       0.0267
   3643.3750   2679.4177  -2648.4177     104.0079     175.8638      61.1212     868.8997       0.2522       0.2915       2.1033       0.0924       0.0501
   3643.5000   2679.4683  -2648.4683     103.8492     175.9396      60.2517     838.8837       0.2541       0.2909       2.1045       0.0926       0.0550
   3643.6250   2679.5188  -2648.5188     103.8584     175.8489      57.7589     819.1716       0.2528       0.2905       2.1053       0.0933       0.0531
   3643.7500   2679.5693  -2648.5693     103.9713     175.5417      56.8200     799.6049       0.2554       0.2901       2.1061       0.0937       0.0591
   3643.8750   2679.6199  -2648.6199     103.9048     176.3179      56.8667     780.1841       0.2448       0.2897       2.1069       0.0940       0.0353
   3644.0000   2679.6704  -2648.6704     103.8178     175.9074      56.9133     779.5899       0.2432       0.2897       2.1070       0.0945       0.0320
   3644.1250   2679.7212  -2648.7212     103.6671     175.7854      60.1287     726.8311       0.2378       0.2884       2.1093       0.0951       0.0224
   3644.2500   2679.7717  -2648.7717     103.5878     175.8351      61.4037     674.6287       0.2356       0.2872       2.1118       0.0959       0.0201
   3644.3750   2679.8223  -2648.8223     103.5569     175.8611      59.6979     646.4514       0.2413       0.2864       2.1132       0.0963       0.0338
   3644.5000   2679.8728  -2648.8728     103.4141     175.8388      59.0365     630.3240       0.2535       0.2860       2.1140       0.0958       0.0627
   3644.6250   2679.9233  -2648.9233     103.8695     176.9186      58.3760     631.0803       0.2633       0.2860       2.1140       0.0963       0.0824
   3644.7500   2679.9739  -2648.9739     103.9392     176.6876      58.2979     646.3187       0.2630       0.2864       2.1133       0.0975       0.0808
   3644.8750   2680.0244  -2649.0244     104.1331     175.9844      58.1187     704.7705       0.2590       0.2879       2.1105       0.0973       0.0701
   3645.0000   2680.0750  -2649.0750     104.6044     175.8993      57.8406     813.6490       0.2515       0.2904       2.1057       0.0962       0.0506
   3645.1250   2680.1255  -2649.1255     105.1906     176.6605      57.6226     985.9091       0.2423       0.2937       2.0994       0.0952       0.0225
   3645.2500   2680.1760  -2649.1760     105.2283     175.9270      57.4045    1295.2705       0.2439       0.2985       2.0904       0.0931       0.0174
   3645.3750   2680.2268  -2649.2268     105.4573     176.0303      55.6410    1589.2628       0.2432       0.3020       2.0837       0.0928       0.0094
   3645.5000   2680.2773  -2649.2773     105.4374     176.5071      56.6419    1839.4460       0.2503       0.3045       2.0790       0.0927       0.0223
   3645.6250   2680.3279  -2649.3279     105.2874     176.9644      57.1254    1814.0981       0.2537       0.3043       2.0795       0.0941       0.0297
   3645.7500   2680.3784  -2649.3784     105.0186     177.1940      56.2051    1532.2762       0.2530       0.3014       2.0852       0.0962       0.0335
   3645.8750   2680.4290  -2649.4290     104.5761     177.1940      55.3420    1231.9724       0.2556       0.2976       2.0924       0.0976       0.0455
   3646.0000   2680.4795  -2649.4795     104.4112     177.1940      54.4802    1056.9211       0.2498       0.2949       2.0973       0.0969       0.0364
   3646.1250   2680.5300  -2649.5300     104.4309     177.1940      52.5117    1031.9395       0.2539       0.2945       2.0980       0.0959       0.0314
   3646.2500   2680.5806  -2649.5806     104.4500     177.1940      52.2663     969.5482       0.2555       0.2934       2.1001       0.0968       0.0283
   3646.3750   2680.6311  -2649.6311     104.4851     177.1940      53.1376     956.8157       0.2571       0.2932       2.1006       0.0980       0.0392
   3646.5000   2680.6816  -2649.6816     104.5216     177.1940      54.0751    1047.9716       0.2608       0.2948       2.0977       0.0981       0.0509
