#------------------------------------------------------------------------------
#
#   Created by  : [OpenWorks] Log Export Utility (LEXP)
#   Created on  : 2007-05-07 11:56:58
#   Project     : NORNE
#   User        : JSE
#   Interpreter : JSE
#
#------------------------------------------------------------------------------
~VERSION INFORMATION
VERS. 2.0 : CWLS Log ASCII Standard - version 2.0
WRAP.  NO : One line per depth step
~WELL INFORMATION
#MNEMONIC   .UNIT                                           VALUE :DESCRIPTION
#------------------------------------------------------------------------------
STRT        .M                                          1300.1250 :START DEPTH
STOP        .M                                          3919.5000 :STOP DEPTH
STEP        .M                                             0.1250 :STEP
NULL        .                                           -999.2500 :NULL VALUE
COMP        .                                             STATOIL :COMPANY
WELL        .                                      	Norne1 	:WELL
FLD         .                                             UNKNOWN :FIELD
LOC         .                                             UNKNOWN :LOCATION
CNTY        .                                             UNKNOWN :COUNTY
STAT        .                                              Norway :STATE
CTRY        .                                              Norway :COUNTRY
SRVC        .                                             UNKNOWN :SERVICE COMPANY
DATE        .                                             UNKNOWN :LOG DATE
UWI         .                                   NO 6608/10-B-4 AH :UNIQUE WELL ID
XCOORD      .                                       457114.155170 :SURFACE X
YCOORD      .                                      7322136.377520 :SURFACE Y
LAT         .                                           66.015409 :LATITUDE
LON         .                                            8.054547 :LONGITUDE
ELEV        .M                                            31.0000 :SURFACE ELEV
ELEV_TYPE   .                                                  KB :ELEV TYPE
~CURVE INFORMATION
#MNEMONIC.UNIT        API CODE       : CURVE DESCRIPTION
#------------------------------------------------------------------------------
DEPTH    .M                          : Measured Depth
TVD      .M                          : True Vertical Depth (TVD)
TVDSS    .M                          : True Vertical Depth (TVDSS)
DTC       .us/ft       UNKNOWN        : DTC:CURVE_LOADER:rC::v0 (auto-composite)
DTS      .us/ft       UNKNOWN        : DTS:CURVE_LOADER:rC::v0 (auto-composite)
GR       .API         UNKNOWN        : GR:CURVE_LOADER:rC::v0 (auto-composite)
KLOGH    .mD          UNKNOWN        : KLOGH:UNKNOWN:rC::v0 (auto-composite)
NPHI     .v/v_decimal UNKNOWN        : NPHI:PETROWORKS:rC:NONE:v2 
PHIF     .v/v_decimal UNKNOWN        : PHIF:UNKNOWN:rC::v0 (auto-composite)
RHOB     .g/cm3       UNKNOWN        : RHOB:PETROWORKS:rC:NONE:v3 
SW       .v/v_decimal UNKNOWN        : SW:UNKNOWN:rC::v0 (auto-composite)
VSH      .v/v_decimal UNKNOWN        : VSH:UNKNOWN:rC::v0 (auto-composite)
~A     DEPTH         TVD       TVDSS           DT          DTS           GR        KLOGH         NPHI         PHIF         RHOB           SW          VSH
# ...
   3887.1250   2818.2048  -2787.2048      92.2780     167.9510      72.3679    -999.2500    -999.2500    -999.2500    -999.2500    -999.2500       0.0000
   3887.2500   2818.2947  -2787.2947      92.2780     167.9510      65.5168    -999.2500    -999.2500    -999.2500    -999.2500    -999.2500       0.0000
   3887.3750   2818.3845  -2787.3845      92.2780     167.9510      61.6345    -999.2500    -999.2500    -999.2500    -999.2500    -999.2500       0.0000
   3887.5000   2818.4744  -2787.4744      92.2780     167.9510      59.4857    -999.2500    -999.2500    -999.2500    -999.2500    -999.2500       0.0000
   3887.6250   2818.5645  -2787.5645      92.2780     167.9510      59.2403    -999.2500    -999.2500    -999.2500    -999.2500    -999.2500       0.0000
   3887.7500   2818.6543  -2787.6543      92.2780     167.9510      61.0781    -999.2500    -999.2500    -999.2500    -999.2500    -999.2500       0.0000
   3887.8750   2818.7441  -2787.7441      92.2780     167.9510      64.7370    -999.2500    -999.2500    -999.2500    -999.2500    -999.2500       0.0000
   3888.0000   2818.8340  -2787.8340      92.2780     167.9510      65.9243    -999.2500    -999.2500    -999.2500    -999.2500    -999.2500       0.0000
   3888.1250   2818.9241  -2787.9241      92.2660     167.9510      67.1218    -999.2500    -999.2500    -999.2500    -999.2500    -999.2500       0.0000
   3888.2500   2819.0139  -2788.0139      92.2112     167.9510      68.0802    -999.2500    -999.2500    -999.2500    -999.2500    -999.2500       0.0000
   3888.3750   2819.1038  -2788.1038      92.0964     167.9510      69.2023    -999.2500    -999.2500    -999.2500    -999.2500    -999.2500       0.0000
   3888.5000   2819.1936  -2788.1936      91.9762     167.9510      70.8716    -999.2500    -999.2500    -999.2500    -999.2500    -999.2500       0.0000
   3888.6250   2819.2837  -2788.2837      92.2650     167.9510      71.1802    -999.2500    -999.2500    -999.2500    -999.2500    -999.2500       0.0000
   3888.7500   2819.3735  -2788.3735      92.2066     167.9510      71.4885    -999.2500    -999.2500    -999.2500    -999.2500    -999.2500       0.0000
   3888.8750   2819.4634  -2788.4634      92.2314     167.9510      72.1254    -999.2500    -999.2500    -999.2500    -999.2500    -999.2500       0.0000
   3889.0000   2819.5532  -2788.5532      92.2780     167.9510      72.4474    -999.2500    -999.2500    -999.2500    -999.2500    -999.2500       0.0000
   3889.1250   2819.6433  -2788.6433      92.2780     167.9510      72.9071    -999.2500    -999.2500    -999.2500    -999.2500    -999.2500       0.0000
   3889.2500   2819.7332  -2788.7332      92.2780     167.9510      75.6088    -999.2500    -999.2500    -999.2500    -999.2500    -999.2500       0.0000
   3889.3750   2819.8230  -2788.8230      92.2780     167.9510      76.2285    -999.2500    -999.2500    -999.2500    -999.2500    -999.2500       0.0000
   3889.5000   2819.9128  -2788.9128      92.2780     167.9510      76.8490    -999.2500    -999.2500    -999.2500    -999.2500    -999.2500       0.0000
   3889.6250   2820.0029  -2789.0029      92.2780     167.9510      78.3190    -999.2500    -999.2500    -999.2500    -999.2500    -999.2500       0.0000
   3889.7500   2820.0928  -2789.0928      92.2780     167.9510      82.9894    -999.2500    -999.2500    -999.2500    -999.2500    -999.2500       0.0000
   3889.8750   2820.1826  -2789.1826      92.2780     167.9510      91.0877    -999.2500    -999.2500    -999.2500    -999.2500    -999.2500       0.0000
   3890.0000   2820.2725  -2789.2725      92.2780     167.9510      92.0227    -999.2500    -999.2500    -999.2500    -999.2500    -999.2500       0.0000
   3890.1250   2820.3625  -2789.3625      92.2780     167.9510      92.9564    -999.2500    -999.2500    -999.2500    -999.2500    -999.2500       0.0000
   3890.2500   2820.4524  -2789.4524      92.2780     167.9510      96.9795    -999.2500    -999.2500    -999.2500    -999.2500    -999.2500       0.0000
   3890.3750   2820.5422  -2789.5422      92.2780     167.9510     104.3244    -999.2500    -999.2500    -999.2500    -999.2500    -999.2500       0.0000
   3890.5000   2820.6321  -2789.6321      92.2780     167.9510     112.5620    -999.2500    -999.2500    -999.2500    -999.2500    -999.2500       0.0000
   3890.6250   2820.7222  -2789.7222      92.2780     167.9510     117.2841    -999.2500    -999.2500    -999.2500    -999.2500    -999.2500       0.0000
   3890.7500   2820.8120  -2789.8120      92.2780     167.9510     121.9990    -999.2500    -999.2500    -999.2500    -999.2500    -999.2500       0.0000
   3890.8750   2820.9019  -2789.9019      92.2780     167.9510     124.9022    -999.2500    -999.2500    -999.2500    -999.2500    -999.2500       0.0000
   3891.0000   2820.9917  -2789.9917      92.2780     167.9510     127.9000    -999.2500    -999.2500    -999.2500    -999.2500    -999.2500       0.0000
   3891.1250   2821.0818  -2790.0818      92.2780     167.9510     130.5589    -999.2500    -999.2500    -999.2500    -999.2500    -999.2500       0.0000
   3891.2500   2821.1716  -2790.1716      92.2780     167.9510     132.0574    -999.2500    -999.2500    -999.2500    -999.2500    -999.2500       0.0000
   3891.3750   2821.2615  -2790.2615      92.2780     167.9510     132.9320    -999.2500    -999.2500    -999.2500    -999.2500    -999.2500       0.0000
   3891.5000   2821.3513  -2790.3513      92.2780     167.9510     133.8079    -999.2500    -999.2500    -999.2500    -999.2500    -999.2500       0.0000
   3891.6250   2821.4414  -2790.4414      92.2780     167.9510     134.3724    -999.2500    -999.2500    -999.2500    -999.2500    -999.2500       0.0000
   3891.7500   2821.5312  -2790.5312      92.2780     167.9510     134.0695    -999.2500    -999.2500    -999.2500    -999.2500    -999.2500       0.0000
   3891.8750   2821.6211  -2790.6211      92.2780     167.9510     132.7742    -999.2500    -999.2500    -999.2500    -999.2500    -999.2500       0.0000
   3892.0000   2821.7109  -2790.7109      92.2780     167.9510     130.8218    -999.2500    -999.2500    -999.2500    -999.2500    -999.2500       0.0000
   3892.1250   2821.8010  -2790.8010      92.2780     167.9510     128.8723    -999.2500    -999.2500    -999.2500    -999.2500    -999.2500       0.0000
   3892.2500   2821.8909  -2790.8909      92.2780     167.9510     123.5656    -999.2500    -999.2500    -999.2500    -999.2500    -999.2500       0.0000
   3892.3750   2821.9807  -2790.9807      92.2780     167.9510     125.9911    -999.2500    -999.2500    -999.2500    -999.2500    -999.2500       0.0000
   3892.5000   2822.0706  -2791.0706      92.2780     167.9510    -999.2500    -999.2500    -999.2500    -999.2500    -999.2500    -999.2500       0.0010
   3892.6250   2822.1606  -2791.1606      92.2780     167.9510    -999.2500    -999.2500    -999.2500    -999.2500    -999.2500    -999.2500       0.0010
   3892.7500   2822.2505  -2791.2505      92.2780     167.9510    -999.2500    -999.2500    -999.2500    -999.2500    -999.2500    -999.2500       0.0010
   3892.8750   2822.3403  -2791.3403      92.2780     167.9510    -999.2500    -999.2500    -999.2500    -999.2500    -999.2500    -999.2500       0.0010
   3893.0000   2822.4302  -2791.4302      92.2780     167.9510    -999.2500    -999.2500    -999.2500    -999.2500    -999.2500    -999.2500       0.0010
   3893.1250   2822.5203  -2791.5203      92.2780     167.9510    -999.2500    -999.2500    -999.2500    -999.2500    -999.2500    -999.2500       0.0010
   3893.2500   2822.6101  -2791.6101    -999.2500    -999.2500    -999.2500    -999.2500    -999.2500    -999.2500    -999.2500    -999.2500       0.0000
   3893.3750   2822.7000  -2791.7000    -999.2500    -999.2500    -999.2500    -999.2500    -999.2500    -999.2500    -999.2500    -999.2500       0.0000
   3893.5000   2822.7898  -2791.7898    -999.2500    -999.2500    -999.2500    -999.2500    -999.2500    -999.2500    -999.2500    -999.2500       0.0000
