~Version Information Block
VERS .                 2.00:  CWLS LOG ASCII STANDARD - VERSION 2.00
WRAP .                   NO:  One line per depth step
~Well Information Block
#MNEM.UNIT        Data Type   Information
#---------- ----------------  -----------
STRT .F               548.5:  START DEPTH
STOP .F              5629.5:  STOP DEPTH
STEP .F                 0.5:  STEP
NULL .              -999.25:  NULL VALUE
COMP .          ADTI/LUNDIN:  COMPANY
WELL .             12/17b-1:  WELL
FLD  .            RIDGEWOOD:  FIELD
LOC  .            NORTH SEA:  LOCATION
PROV .                 UKCS:  PROVINCE
SRVC .           PATHFINDER:  SERVICE COMPANY
DATE .        DEC-07-JAN-08:  LOG DATE
UWI  .                29869:  UNIQUE WELL ID
~Curve Information Block
#MNEM.UNIT         API CODE   Curve Description
#---------- ----------------  -----------------
DEPTH.F                    :  Depth in Feet
CALI .IN                   :  Edited DNS Caliper from Standoffs
NPHI .V/V                  :  Edited DNS Neutron Porosity Correction
DRHO .G/C3                 :  Edited DNS Density - Density Correction
DTC  .US/F                 :  Edited Delta-T Compressional Lower trans
DTS  .US/F                 :  Edited Delta-T Shear Upper trans.
GR  .GAPI                 :  Edited CWR Calibrated Gamma
NLIM .V/V                  :  Edited Neutron Porosity (Lime)
R25A .OHMM                 :  Edited CWR Medium Attenuation Resistivity
R25P .OHMM                 :  Edited CWR Medium Phase Resistivity
R55A .OHMM                 :  Edited CWR Deep Attenuation Resistivity
R55P .OHMM                 :  Edited CWR Deep Phase Resistivity
RHOB .G/C3                 :  Edited DNS Density - Bulk Density
~Parameter Information Block
#MNEM.UNIT            Value   Description
#---------- ----------------  -----------
SET  .             COMP_MWD:  
PROJ .          113TH_I_1:  
DATU .                  MSL:  
DMF  .                   RT:  DRILLING-LOG MEASURED FROM
TDD  .F                5678:  
EKB  .F                 153:  
EPD  .F                   0:  ELEVATION OF PERMANENT DATUM
LATI .       58 23 51.523 N:  
LONG .       02 38 15.863 W:  
LMF  .                   RT:  
SURF .F                -203:  
~Other Information Block
       COMPOSITE
~A        DEPTH           CALI           DNPH           DRHO            DTC            DTS            GRC           NLIM           R25A           R25P           R55A           R55P           RHOB 
# ...
      4546.0000        12.5030        -0.0142         0.0650        74.4900       129.7800        37.2100         0.1045        13.6920        12.9830        12.1640        12.9000         2.4880 
      4546.5000        12.4690        -0.0144         0.0610        72.3600       129.0700        37.7500         0.0937        14.7450        15.1460        12.1910        14.4460         2.4990 
      4547.0000        12.4680        -0.0140         0.0600        70.7600       132.2700        39.3500         0.0961        13.5760        12.5970        11.6830        12.2880         2.5100 
      4547.5000        12.4670        -0.0119         0.0600        74.1300       143.8200        41.4900         0.1070        13.4240        12.3170        11.4720        11.9930         2.5160 
      4548.0000        12.4710        -0.0102         0.0590        80.5300       154.3100        44.4400         0.1199        12.4450        10.5530        11.1900        10.5040         2.5130 
      4548.5000        12.5350        -0.0131         0.0550        83.3200       160.7000        47.5900         0.1359        11.4190         8.9350        10.7180         9.2530         2.4970 
      4549.0000        12.5320        -0.0161         0.0510        77.5100       164.6900        49.9500         0.1586        10.4140         7.9210        10.1940         8.4570         2.4700 
      4549.5000        12.5280        -0.0167         0.0470        71.5900       164.3500        50.2100         0.1714         9.4580         7.2930         9.6710         7.9370         2.4370 
      4550.0000        12.5100        -0.0190         0.0440        74.6700       163.1300        49.9500         0.1663         8.6210         6.7670         9.1280         7.5050         2.4090 
      4550.5000        12.5030        -0.0213         0.0430        80.0000       163.3100        52.1200         0.1703         7.9140         6.2160         8.6170         6.9870         2.3890 
      4551.0000        12.5100        -0.0220         0.0420        83.2000       164.8800        55.3100         0.1934         7.3930         5.6980         8.2240         6.4240         2.3730 
      4551.5000        12.5440        -0.0256         0.0400        89.4200       165.3000        55.7800         0.2104         6.8920         5.0190         7.8580         5.6160         2.3510 
      4552.0000        12.5430        -0.0329         0.0400        95.6400       164.4100        56.7500         0.2198         6.5000         4.5500         7.5210         5.0270         2.3260 
      4552.5000        12.5330        -0.0324         0.0400        97.0700       164.1600        60.9200         0.2357         6.2710         4.4010         7.2650         4.8120         2.3010 
      4553.0000        12.5320        -0.0233         0.0440       100.9800       161.8900        64.1200         0.2475         6.2350         4.4110         7.1070         4.8370         2.2860 
      4553.5000        12.5330        -0.0175         0.0490       102.5800       156.7300        63.0000         0.2478         6.3740         4.5150         7.1300         4.9950         2.2830 
      4554.0000        12.5630        -0.0157         0.0560       101.3300       151.1100        58.2100         0.2409         6.5020         4.7200         7.1530         5.2250         2.2950 
      4554.5000        12.5580        -0.0146         0.0610        99.9100       148.6200        54.0200         0.2283         6.7170         5.1340         7.2330         5.6790         2.3090 
      4555.0000        12.5450        -0.0153         0.0670        97.9600       150.4000        52.3400         0.2066         6.9590         5.5330         7.1600         6.0470         2.3230 
      4555.5000        12.5300        -0.0166         0.0730        94.9300       156.5100        54.4000         0.1872         7.3490         5.8990         7.2450         6.3600         2.3410 
      4556.0000        12.5610        -0.0168         0.0790        92.9800       162.0100        55.4300         0.1871         7.7000         6.1760         7.3120         6.5650         2.3710 
      4556.5000        12.5750        -0.0166         0.0830        92.0900       163.3100        55.4300         0.1934         7.8840         6.3780         7.3250         6.6810         2.4040 
      4557.0000        12.5890        -0.0163         0.0800        91.9100       162.1300        57.2800         0.1904         7.8950         6.4740         7.2940         6.7510         2.4260 
      4557.5000        12.6130        -0.0162         0.0730        91.0200       161.7200        59.0000         0.1847         7.7560         6.5310         7.1670         6.8600         2.4360 
      4558.0000        12.6220        -0.0168         0.0670        89.7800       162.2000        57.9400         0.1856         7.4460         6.4750         6.9690         6.9360         2.4380 
      4558.5000        12.6000        -0.0195         0.0620        89.6000       160.3500        56.0900         0.1851         7.0090         6.3080         6.6750         6.9110         2.4360 
      4559.0000        12.6360        -0.0249         0.0590        90.1300       154.4700        51.2300         0.1785         6.5060         6.0060         6.3020         6.6600         2.4290 
      4559.5000        12.6510        -0.0294         0.0550        91.5600       151.7400        44.3500         0.1774         6.2570         5.3630         6.1990         5.9420         2.4100 
      4560.0000        12.6200        -0.0281         0.0490        92.8000       149.6500        38.9500         0.1848         5.3800         4.5750         5.6390         5.0790         2.3740 
      4560.5000        12.5550        -0.0255         0.0410        93.1600       152.1400        35.5100         0.1937         4.8200         4.0090         5.0740         4.3380         2.3220 
      4561.0000        12.5200        -0.0278         0.0350        91.7300       158.7800        33.6100         0.2004         4.4250         3.5300         4.7560         3.7870         2.2710 
      4561.5000        12.5140        -0.0289         0.0320        90.6700       164.5100        33.4300         0.2081         3.9790         3.1380         4.3320         3.3550         2.2300 
      4562.0000        12.5140        -0.0264         0.0320        91.0200       166.3500        34.2800         0.2204         3.7160         3.0120         4.0640         3.2380         2.2030 
      4562.5000        12.5190        -0.0275         0.0370        91.5600       166.4800        34.5700         0.2322         3.4990         2.9460         3.8430         3.1990         2.1850 
      4563.0000        12.6500        -0.0326         0.0480        92.2700       166.6200        34.6800         0.2337         3.3540         2.8830         3.7030         3.1650         2.1770 
      4563.5000        12.7770        -0.0402         0.0620        93.6900       166.2600        35.2000         0.2259         3.2510         2.8080         3.6150         3.1000         2.1730 
      4564.0000        12.7920        -0.0477         0.0740        94.9300       164.9000        34.8800         0.2173         3.1650         2.7540         3.5220         3.0360         2.1670 
      4564.5000        12.8210        -0.0490         0.0820        96.1800       164.4600        34.7700         0.2137         3.0960         2.7190         3.4280         2.9720         2.1590 
      4565.0000        12.7690        -0.0445         0.0880        96.8900       164.6200        36.1200         0.2192         3.0410         2.6830         3.3360         2.9100         2.1560 
      4565.5000        12.5940        -0.0410         0.0900        97.4200       164.2700        36.4300         0.2241         3.0000         2.6500         3.2600         2.8590         2.1570 
      4566.0000        12.6010        -0.0388         0.0850        97.6000       161.0700        35.7200         0.2250         2.9550         2.6290         3.1830         2.8240         2.1570 
