~Version Information Block
VERS .                 2.00:  CWLS LOG ASCII STANDARD - VERSION 2.00
WRAP .                   NO:  One line per depth step
~Well Information Block
#MNEM.UNIT        Data Type   Information
#---------- ----------------  -----------
STRT .F               548.5:  START DEPTH
STOP .F              5629.5:  STOP DEPTH
STEP .F                 0.5:  STEP
NULL .              -999.25:  NULL VALUE
COMP .          ADTI/LUNDIN:  COMPANY
WELL .             12/17b-1:  WELL
FLD  .            RIDGEWOOD:  FIELD
LOC  .            NORTH SEA:  LOCATION
PROV .                 UKCS:  PROVINCE
SRVC .           PATHFINDER:  SERVICE COMPANY
DATE .        DEC-07-JAN-08:  LOG DATE
UWI  .                29869:  UNIQUE WELL ID
~Curve Information Block
#MNEM.UNIT         API CODE   Curve Description
#---------- ----------------  -----------------
DEPTH.F                    :  Depth in Feet
CALI .IN                   :  Edited DNS Caliper from Standoffs
NPHI .V/V                  :  Edited DNS Neutron Porosity Correction
DRHO .G/C3                 :  Edited DNS Density - Density Correction
DTC  .US/F                 :  Edited Delta-T Compressional Lower trans
DTS  .US/F                 :  Edited Delta-T Shear Upper trans.
GR  .GAPI                 :  Edited CWR Calibrated Gamma
NLIM .V/V                  :  Edited Neutron Porosity (Lime)
R25A .OHMM                 :  Edited CWR Medium Attenuation Resistivity
R25P .OHMM                 :  Edited CWR Medium Phase Resistivity
R55A .OHMM                 :  Edited CWR Deep Attenuation Resistivity
R55P .OHMM                 :  Edited CWR Deep Phase Resistivity
RHOB .G/C3                 :  Edited DNS Density - Bulk Density
~Parameter Information Block
#MNEM.UNIT            Value   Description
#---------- ----------------  -----------
SET  .             COMP_MWD:  
PROJ .          113TH_I_1:  
DATU .                  MSL:  
DMF  .                   RT:  DRILLING-LOG MEASURED FROM
TDD  .F                5678:  
EKB  .F                 153:  
EPD  .F                   0:  ELEVATION OF PERMANENT DATUM
LATI .       58 23 51.523 N:  
LONG .       02 38 15.863 W:  
LMF  .                   RT:  
SURF .F                -203:  
~Other Information Block
       COMPOSITE
~A        DEPTH           CALI           DNPH           DRHO            DTC            DTS            GRC           NLIM           R25A           R25P           R55A           R55P           RHOB 
# ...
      3295.5000        12.4670        -0.0496         0.0640       126.0400      -999.2500        83.4000         0.4085         6.0980         4.7450         5.9610         4.7560         2.1130 
      3296.0000        12.4590        -0.0447         0.0660       127.8200      -999.2500        81.3400         0.3852         6.3040         4.9080         5.9610         4.8230         2.1140 
      3296.5000        12.4610        -0.0419         0.0670       129.0700      -999.2500        82.1300         0.3691         6.4900         4.9960         5.9580         4.8320         2.1180 
      3297.0000        12.4510        -0.0430         0.0630       127.4700      -999.2500        86.0200         0.3786         6.5730         5.0650         6.0120         4.8810         2.1250 
      3297.5000        12.4540        -0.0480         0.0560       123.9100      -999.2500        89.2300         0.4153         6.5570         5.1800         6.0750         5.0080         2.1300 
      3298.0000        12.4540        -0.0504         0.0480       123.2000      -999.2500        90.4100         0.4372         6.4170         5.1790         6.0820         5.0770         2.1290 
      3298.5000        12.4510        -0.0515         0.0460       123.2000      -999.2500        90.3800         0.4283         6.2270         5.0960         6.0830         5.0880         2.1280 
      3299.0000        12.4540        -0.0525         0.0490       124.8000      -999.2500        90.2800         0.4115         5.9720         4.9070         5.9940         5.0640         2.1360 
      3299.5000        12.4520        -0.0535         0.0520       127.1100      -999.2500        90.1100         0.4019         5.7030         4.8470         5.7420         5.0470         2.1450 
      3300.0000        12.4550        -0.0565         0.0490       126.0400      -999.2500        88.4900         0.3961         5.2920         4.5920         5.3240         4.6690         2.1470 
      3300.5000        12.4520        -0.0570         0.0410       125.8700      -999.2500        85.1400         0.3920         5.0380         4.0900         5.1540         4.0790         2.1360 
      3301.0000        12.4470        -0.0551         0.0390       126.4000      -999.2500        81.3700         0.3982         4.9160         3.1030         5.3180         3.0610         2.1240 
      3301.5000        12.4490        -0.0548         0.0420       126.4000      -999.2500        81.1800         0.4102         4.8500         3.0920         5.2460         3.0680         2.1180 
      3302.0000        12.4540        -0.0559         0.0460       126.4000      -999.2500        84.3800         0.4089         4.8670         3.8240         5.0600         3.8560         2.1170 
      3302.5000        12.4620        -0.0577         0.0460       126.4000      -999.2500        86.3300         0.4118         5.0390         4.1550         5.2060         4.2730         2.1150 
      3303.0000        12.4630        -0.0548         0.0450       125.3300      -999.2500        86.9400         0.4323         5.2100         4.2960         5.3980         4.4720         2.1110 
      3303.5000        12.4550        -0.0519         0.0450       123.7300      -999.2500        89.8500         0.4469         5.3600         4.2700         5.6460         4.4670         2.1060 
      3304.0000        12.4560        -0.0543         0.0490       123.7300      -999.2500        92.8700         0.4403         5.5880         4.3160         5.8520         4.4330         2.1040 
      3304.5000        12.4550        -0.0541         0.0530       123.7300      -999.2500        94.8800         0.4222         5.9310         4.6130         6.0010         4.6080         2.1010 
      3305.0000        12.4540        -0.0542         0.0570       125.6900      -999.2500        97.6800         0.4145         6.1720         4.8830         6.0700         4.7900         2.0980 
      3305.5000        12.4470        -0.0579         0.0570       126.4000      -999.2500       101.0000         0.4186         6.3960         4.9320         6.1850         4.8420         2.0930 
      3306.0000        12.4440        -0.0600         0.0580       126.5800      -999.2500       101.7600         0.4143         6.5610         4.9740         6.2860         4.9190         2.0940 
      3306.5000        12.4570        -0.0602         0.0550       127.1100      -999.2500       100.4500         0.4025         6.6580         5.0880         6.4010         5.0740         2.0970 
      3307.0000        12.4590        -0.0618         0.0510       125.6900      -999.2500        98.1200         0.4077         6.7100         5.0920         6.5400         5.1060         2.1030 
      3307.5000        12.4650        -0.0670         0.0450       124.2700      -999.2500        98.9500         0.4299         6.7860         4.9610         6.6980         5.0130         2.1040 
      3308.0000        12.4820        -0.0702         0.0450       126.4000      -999.2500       102.5300         0.4361         6.8020         4.9110         6.7650         4.9750         2.1060 
      3308.5000        12.5020        -0.0644         0.0480       128.0000      -999.2500       102.7700         0.4143         6.7730         4.9360         6.7520         4.9920         2.1050 
      3309.0000        12.5120        -0.0550         0.0530       128.1800      -999.2500       102.5800         0.3985         6.7880         4.9070         6.7780         4.9700         2.1010 
      3309.5000        12.5230        -0.0504         0.0570       129.0700      -999.2500       102.2600         0.4025         6.8050         4.9030         6.8060         4.9660         2.0970 
      3310.0000        12.5150        -0.0461         0.0610       129.0700      -999.2500       100.0300         0.3912         6.8780         4.9730         6.8470         4.9910         2.0960 
      3310.5000        12.4900        -0.0370         0.0640       128.1800      -999.2500        96.8400         0.3624         6.9260         5.0000         6.8950         5.0110         2.1050 
      3311.0000        12.4700        -0.0307         0.0670       125.8700      -999.2500        94.9300         0.3550         7.0520         5.0160         6.9800         5.0560         2.1210 
      3311.5000        12.4710        -0.0325         0.0690       121.9600      -999.2500        90.7400         0.3735         7.0350         5.3160         6.9070         5.3520         2.1440 
      3312.0000        12.5010        -0.0372         0.0680       119.4700      -999.2500        82.5900         0.3889         6.9240         5.6920         6.7360         5.6670         2.1600 
      3312.5000        12.5370        -0.0441         0.0630       118.4000      -999.2500        73.7500         0.3858         7.0430         5.5300         6.8370         5.5270         2.1590 
      3313.0000        12.5570        -0.0531         0.0560       118.4000      -999.2500        75.7700         0.3797         7.0860         5.4060         6.8720         5.4060         2.1430 
      3313.5000        12.5630        -0.0569         0.0530       119.4700      -999.2500        88.5400         0.3879         7.0500         5.3810         6.8480         5.3680         2.1280 
      3314.0000        12.5420        -0.0505         0.0540       121.4200      -999.2500       100.8400         0.3978         6.9050         5.3100         6.7410         5.2530         2.1280 
      3314.5000        12.4690        -0.0414         0.0560       123.3800      -999.2500       106.6500         0.4000         6.7860         5.1180         6.6310         5.0510         2.1400 
      3315.0000        12.4510        -0.0386         0.0530       127.2900      -999.2500       104.9500         0.4052         6.5950         4.9120         6.5230         4.8940         2.1480 
      3315.5000        12.4570        -0.0434         0.0460       128.5300      -999.2500        98.4800         0.4173         6.3590         4.7750         6.3530         4.7920         2.1450 
