~Version Information Block
VERS .                 2.00:  CWLS LOG ASCII STANDARD - VERSION 2.00
WRAP .                   NO:  One line per depth step
~Well Information Block
#MNEM.UNIT        Data Type   Information
#---------- ----------------  -----------
STRT .F               548.5:  START DEPTH
STOP .F              5629.5:  STOP DEPTH
STEP .F                 0.5:  STEP
NULL .              -999.25:  NULL VALUE
COMP .          ADTI/LUNDIN:  COMPANY
WELL .             12/17b-1:  WELL
FLD  .            RIDGEWOOD:  FIELD
LOC  .            NORTH SEA:  LOCATION
PROV .                 UKCS:  PROVINCE
SRVC .           PATHFINDER:  SERVICE COMPANY
DATE .        DEC-07-JAN-08:  LOG DATE
UWI  .                29869:  UNIQUE WELL ID
~Curve Information Block
#MNEM.UNIT         API CODE   Curve Description
#---------- ----------------  -----------------
DEPTH.F                    :  Depth in Feet
CALI .IN                   :  Edited DNS Caliper from Standoffs
NPHI .V/V                  :  Edited DNS Neutron Porosity Correction
DRHO .G/C3                 :  Edited DNS Density - Density Correction
DTC  .US/F                 :  Edited Delta-T Compressional Lower trans
DTS  .US/F                 :  Edited Delta-T Shear Upper trans.
GR  .GAPI                 :  Edited CWR Calibrated Gamma
NLIM .V/V                  :  Edited Neutron Porosity (Lime)
R25A .OHMM                 :  Edited CWR Medium Attenuation Resistivity
R25P .OHMM                 :  Edited CWR Medium Phase Resistivity
R55A .OHMM                 :  Edited CWR Deep Attenuation Resistivity
R55P .OHMM                 :  Edited CWR Deep Phase Resistivity
RHOB .G/C3                 :  Edited DNS Density - Bulk Density
~Parameter Information Block
#MNEM.UNIT            Value   Description
#---------- ----------------  -----------
SET  .             COMP_MWD:  
PROJ .          113TH_I_1:  
DATU .                  MSL:  
DMF  .                   RT:  DRILLING-LOG MEASURED FROM
TDD  .F                5678:  
EKB  .F                 153:  
EPD  .F                   0:  ELEVATION OF PERMANENT DATUM
LATI .       58 23 51.523 N:  
LONG .       02 38 15.863 W:  
LMF  .                   RT:  
SURF .F                -203:  
~Other Information Block
       COMPOSITE
~A        DEPTH           CALI           DNPH           DRHO            DTC            DTS            GRC           NLIM           R25A           R25P           R55A           R55P           RHOB 
# ...
      3500.5000        12.5060        -0.0205         0.0570       108.0900      -999.2500        74.4900         0.2736         6.2450         4.7670         6.2940         4.9780         2.3180 
      3501.0000        12.4900        -0.0199         0.0560       110.9300      -999.2500        72.4900         0.2779         6.1600         4.8030         6.2010         5.0690         2.3280 
      3501.5000        12.4860        -0.0217         0.0540       111.4700      -999.2500        68.7300         0.2945         5.9400         4.9980         5.9790         5.2630         2.3260 
      3502.0000        12.4990        -0.0227         0.0510       110.0400      -999.2500        68.8600         0.3016         5.8210         4.6850         5.9630         4.9250         2.3130 
      3502.5000        12.5260        -0.0226         0.0480       108.4400      -999.2500        76.1600         0.3096         5.8480         4.0940         6.1230         4.3500         2.2890 
      3503.0000        12.5230        -0.0238         0.0470       109.5100      -999.2500        80.2700         0.3195         5.7610         4.1200         6.0160         4.3400         2.2630 
      3503.5000        12.5610        -0.0274         0.0440       112.8900      -999.2500        80.3900         0.3204         5.8180         4.2880         5.9970         4.7700         2.2320 
      3504.0000        12.5770        -0.0310         0.0430       113.7800      -999.2500        75.5200         0.3203         5.7480         4.4620         5.8820         4.6370         2.1980 
      3504.5000        12.5720        -0.0316         0.0420       114.3100      -999.2500        62.3900         0.3177         5.5120         4.5000         5.7000         4.6550         2.1670 
      3505.0000        12.6580        -0.0304         0.0460       113.4200      -999.2500        54.4900         0.3054         5.5310         4.5270         5.7200         4.6900         2.1610 
      3505.5000        12.6380        -0.0275         0.0530       113.0700      -999.2500        58.6000         0.2970         5.6850         4.5020         5.8810         4.5730         2.1870 
      3506.0000        12.5440        -0.0253         0.0630       112.7100      -999.2500        63.5000         0.2925         5.9050         4.8140         6.0230         5.0200         2.2300 
      3506.5000        12.5320        -0.0259         0.0710       112.1800      -999.2500        65.0400         0.2865         6.0050         4.8940         6.0970         5.1140         2.2660 
      3507.0000        12.5330        -0.0261         0.0780       111.2900      -999.2500        65.0900         0.2863         6.0240         5.0210         6.0860         5.1930         2.2860 
      3507.5000        12.5440        -0.0262         0.0770       112.5300      -999.2500        71.3200         0.3119         6.0470         5.0480         6.0750         5.1770         2.2880 
      3508.0000        12.5550        -0.0298         0.0740       114.1300      -999.2500        79.0500         0.3527         6.1430         4.9060         6.1260         5.0450         2.2830 
      3508.5000        12.6180        -0.0359         0.0650       115.5600      -999.2500        81.1600         0.3584         6.1910         4.7160         6.1680         4.8500         2.2700 
      3509.0000        12.6660        -0.0389         0.0640       116.8000      -999.2500        79.4400         0.3397         6.1740         4.5770         6.1750         4.7030         2.2640 
      3509.5000        12.6540        -0.0333         0.0690       117.5100      -999.2500        77.7200         0.3371         6.1540         4.5660         6.1590         4.6810         2.2620 
      3510.0000        12.5830        -0.0259         0.0790       116.9800      -999.2500        76.4800         0.3444         6.1460         4.5720         6.1440         4.6990         2.2670 
      3510.5000        12.6220        -0.0270         0.0840       115.7300      -999.2500        75.0700         0.3442         6.1140         4.5900         6.1560         4.7310         2.2700 
      3511.0000        12.5890        -0.0320         0.0840       115.9100      -999.2500        73.7700         0.3357         6.0950         4.6060         6.1850         4.7780         2.2740 
      3511.5000        12.5210        -0.0323         0.0800       115.9100      -999.2500        74.3900         0.3261         6.1090         4.6510         6.2310         4.8460         2.2800 
      3512.0000        12.5260        -0.0280         0.0760       113.6000      -999.2500        74.9700         0.3114         6.0920         4.7440         6.2420         4.9390         2.2900 
      3512.5000        12.5420        -0.0228         0.0730       111.4700      -999.2500        74.4000         0.2914         6.0590         4.8360         6.2390         5.0030         2.3050 
      3513.0000        12.5440        -0.0200         0.0730       111.1100      -999.2500        75.0600         0.2775         6.0770         4.7770         6.2940         4.9300         2.3200 
      3513.5000        12.5520        -0.0200         0.0720       112.3600      -999.2500        75.6600         0.2734         6.1570         4.6370         6.4250         4.8050         2.3270 
      3514.0000        12.5170        -0.0224         0.0660       113.4200      -999.2500        77.7200         0.2786         6.1470         4.6730         6.4580         4.8500         2.3200 
      3514.5000        12.5270        -0.0243         0.0570       113.0700      -999.2500        79.7900         0.2949         6.1580         4.7300         6.4800         4.9140         2.3050 
      3515.0000        12.4990        -0.0210         0.0470       111.8200      -999.2500        77.2900         0.3062         6.2160         4.7540         6.5600         4.9770         2.2860 
      3515.5000        12.4950        -0.0172         0.0400       109.8700      -999.2500        71.0600         0.3005         6.2530         4.7900         6.6470         5.0640         2.2630 
      3516.0000        12.5190        -0.0194         0.0390       108.6200      -999.2500        66.9700         0.3040         6.4690         5.0380         6.8900         5.3980         2.2400 
      3516.5000        12.5300        -0.0234         0.0450       107.7300      -999.2500        63.3800         0.3165         6.6570         5.2780         7.0180         5.6360         2.2220 
      3517.0000        12.5920        -0.0253         0.0540       107.2000      -999.2500        57.8700         0.3135         6.9270         5.5220         7.1930         5.8390         2.2140 
      3517.5000        12.7320        -0.0300         0.0610       106.1300      -999.2500        52.1100         0.2954         7.3240         5.8880         7.4950         6.1160         2.2110 
      3518.0000        12.7730        -0.0336         0.0630       104.3600      -999.2500        48.9200         0.2652         7.9940         6.7010         7.8350         6.7470         2.2150 
      3518.5000        12.5220        -0.0285         0.0600       103.8200      -999.2500        47.3000         0.2323         8.6620         7.8550         8.2100         7.9090         2.2240 
      3519.0000        12.5340        -0.0230         0.0560       103.8000      -999.2500        43.8300         0.2108         9.3650         9.2610         8.3270         8.9570         2.2410 
      3519.5000        12.5310        -0.0197         0.0500       107.6200      -999.2500        42.1200         0.2058        10.0940        11.5530         8.7750        10.7500         2.2540 
      3520.0000        12.4940        -0.0145         0.0470       109.8000      -999.2500        43.8500         0.2023        10.9270        14.4460         8.9990        13.0400         2.2690 
      3520.5000        12.4920        -0.0110         0.0500       103.4200      -999.2500        44.5400         0.1714        11.5030        17.5150         9.2430        15.0130         2.2970 
