~Version Information Block
VERS .                 2.00:  CWLS LOG ASCII STANDARD - VERSION 2.00
WRAP .                   NO:  One line per depth step
~Well Information Block
#MNEM.UNIT        Data Type   Information
#---------- ----------------  -----------
STRT .F               548.5:  START DEPTH
STOP .F              5629.5:  STOP DEPTH
STEP .F                 0.5:  STEP
NULL .              -999.25:  NULL VALUE
COMP .          ADTI/LUNDIN:  COMPANY
WELL .             12/17b-1:  WELL
FLD  .            RIDGEWOOD:  FIELD
LOC  .            NORTH SEA:  LOCATION
PROV .                 UKCS:  PROVINCE
SRVC .           PATHFINDER:  SERVICE COMPANY
DATE .        DEC-07-JAN-08:  LOG DATE
UWI  .                29869:  UNIQUE WELL ID
~Curve Information Block
#MNEM.UNIT         API CODE   Curve Description
#---------- ----------------  -----------------
DEPTH.F                    :  Depth in Feet
CALI .IN                   :  Edited DNS Caliper from Standoffs
NPHI .V/V                  :  Edited DNS Neutron Porosity Correction
DRHO .G/C3                 :  Edited DNS Density - Density Correction
DTC  .US/F                 :  Edited Delta-T Compressional Lower trans
DTS  .US/F                 :  Edited Delta-T Shear Upper trans.
GR  .GAPI                 :  Edited CWR Calibrated Gamma
NLIM .V/V                  :  Edited Neutron Porosity (Lime)
R25A .OHMM                 :  Edited CWR Medium Attenuation Resistivity
R25P .OHMM                 :  Edited CWR Medium Phase Resistivity
R55A .OHMM                 :  Edited CWR Deep Attenuation Resistivity
R55P .OHMM                 :  Edited CWR Deep Phase Resistivity
RHOB .G/C3                 :  Edited DNS Density - Bulk Density
~Parameter Information Block
#MNEM.UNIT            Value   Description
#---------- ----------------  -----------
SET  .             COMP_MWD:  
PROJ .          113TH_I_1:  
DATU .                  MSL:  
DMF  .                   RT:  DRILLING-LOG MEASURED FROM
TDD  .F                5678:  
EKB  .F                 153:  
EPD  .F                   0:  ELEVATION OF PERMANENT DATUM
LATI .       58 23 51.523 N:  
LONG .       02 38 15.863 W:  
LMF  .                   RT:  
SURF .F                -203:  
~Other Information Block
       COMPOSITE
~A        DEPTH           CALI           DNPH           DRHO            DTC            DTS            GRC           NLIM           R25A           R25P           R55A           R55P           RHOB 
# ...
      3090.5000        12.4340        -0.0261         0.0750       107.2000      -999.2500        70.7800         0.2637         8.2170         6.0450         8.2620         6.0830         2.4920 
      3091.0000        12.4370        -0.0253         0.0750       106.6700      -999.2500        68.7200         0.2609         8.3490         5.9170         8.3680         5.9320         2.4960 
      3091.5000        12.4500        -0.0258         0.0750       105.6000      -999.2500        65.6700         0.2629         8.4660         6.0300         8.4790         6.0570         2.4990 
      3092.0000        12.4400        -0.0257         0.0780       104.1800      -999.2500        61.8300         0.2632         8.6480         6.3770         8.5430         6.4100         2.5060 
      3092.5000        12.4390        -0.0250         0.0780       103.6400      -999.2500        57.2800         0.2593         8.8130         7.0180         8.6020         7.0560         2.5130 
      3093.0000        12.4340        -0.0231         0.0750       104.3600      -999.2500        53.2700         0.2516         8.9090         7.4210         8.6640         7.4460         2.5180 
      3093.5000        12.4430        -0.0221         0.0730       105.6000      -999.2500        52.5600         0.2398         9.0440         7.5100         8.7460         7.5520         2.5250 
      3094.0000        12.4400        -0.0249         0.0700       104.0000      -999.2500        53.3500         0.2360         8.9360         7.6440         8.6410         7.6120         2.5280 
      3094.5000        12.4370        -0.0286         0.0670       102.4000      -999.2500        55.1700         0.2455         8.8480         7.3380         8.5340         7.2640         2.5230 
      3095.0000        12.4370        -0.0296         0.0610       102.4000      -999.2500        58.0100         0.2546         8.7090         6.8340         8.4450         6.7870         2.5050 
      3095.5000        12.4600        -0.0289         0.0570       102.4000      -999.2500        58.8800         0.2579         8.4280         6.4020         8.1920         6.3840         2.4850 
      3096.0000        12.4480        -0.0288         0.0550       102.9300      -999.2500        57.9400         0.2602         8.0900         6.2110         7.9020         6.1860         2.4680 
      3096.5000        12.4470        -0.0289         0.0540       104.1800      -999.2500        58.0000         0.2677         7.8410         6.0830         7.7140         6.0520         2.4570 
      3097.0000        12.4470        -0.0296         0.0560       106.1300      -999.2500        60.7200         0.2714         7.6630         5.8940         7.6110         5.8830         2.4540 
      3097.5000        12.4470        -0.0302         0.0570       107.2000      -999.2500        63.1900         0.2751         7.5160         5.6710         7.5370         5.7120         2.4500 
      3098.0000        12.4680        -0.0320         0.0630       107.7300      -999.2500        64.4700         0.2704         7.3700         5.6520         7.4190         5.7240         2.4530 
      3098.5000        12.4550        -0.0312         0.0680       110.0400      -999.2500        64.9700         0.2657         7.1750         5.8400         7.2330         5.9020         2.4590 
      3099.0000        12.4540        -0.0298         0.0690       109.3300      -999.2500        65.5500         0.2687         7.0570         5.8630         7.1110         5.9370         2.4610 
      3099.5000        12.4520        -0.0306         0.0670       107.9100      -999.2500        69.1100         0.2753         6.9690         5.6430         7.0400         5.7380         2.4570 
      3100.0000        12.4550        -0.0303         0.0640       108.6200      -999.2500        72.0800         0.2813         6.8160         5.4260         6.9010         5.4970         2.4450 
      3100.5000        12.4590        -0.0296         0.0600       108.8000      -999.2500        72.1200         0.2845         6.6410         5.2560         6.7180         5.2810         2.4330 
      3101.0000        12.4660        -0.0312         0.0570       108.8000      -999.2500        71.1200         0.2795         6.5480         5.1820         6.6190         5.1790         2.4240 
      3101.5000        12.4720        -0.0331         0.0570       108.2700      -999.2500        72.4900         0.2742         6.4790         5.0770         6.5200         5.0560         2.4240 
      3102.0000        12.4490        -0.0322         0.0640       107.5600      -999.2500        76.3500         0.2771         6.3560         4.9430         6.4110         4.9080         2.4410 
      3102.5000        12.4550        -0.0304         0.0740       108.2700      -999.2500        78.6300         0.2819         6.2370         4.8740         6.3460         4.8460         2.4690 
      3103.0000        12.4530        -0.0331         0.0800       108.9800      -999.2500        77.6700         0.2971         6.2410         4.7860         6.3850         4.8080         2.4900 
      3103.5000        12.4530        -0.0384         0.0730       109.8700      -999.2500        74.0900         0.3264         6.2260         4.8080         6.3860         4.8800         2.4860 
      3104.0000        12.4640        -0.0399         0.0600       110.4000      -999.2500        70.4300         0.3329         6.1490         5.0590         6.2900         5.1660         2.4570 
      3104.5000        12.4790        -0.0372         0.0550       110.9300      -999.2500        71.6900         0.3137         6.1300         5.1890         6.2500         5.3130         2.4290 
      3105.0000        12.4810        -0.0345         0.0590       111.2900      -999.2500        76.2900         0.3078         6.1650         5.0590         6.2700         5.1700         2.4150 
      3105.5000        12.4820        -0.0341         0.0650       110.4000      -999.2500        79.3400         0.3117         6.1560         4.9110         6.2830         4.9920         2.4190 
      3106.0000        12.4950        -0.0352         0.0630       109.3300      -999.2500        80.3900         0.3026         6.1880         4.7280         6.3000         4.7430         2.4310 
      3106.5000        12.4740        -0.0367         0.0600       107.2000      -999.2500        80.5300         0.2949         6.2270         4.6620         6.3160         4.6510         2.4520 
      3107.0000        12.4670        -0.0348         0.0550       108.0900      -999.2500        78.4700         0.3031         6.2680         4.6660         6.3630         4.6580         2.4680 
      3107.5000        12.4520        -0.0294         0.0530       109.8700      -999.2500        76.1200         0.3013         6.3580         4.8600         6.3930         4.8850         2.4750 
      3108.0000        12.4730        -0.0277         0.0480       109.3300      -999.2500        74.3800         0.2821         6.4080         5.1030         6.4450         5.1450         2.4680 
      3108.5000        12.4710        -0.0288         0.0440       110.9300      -999.2500        74.2800         0.2726         6.4810         5.3350         6.5760         5.4290         2.4600 
      3109.0000        12.4740        -0.0279         0.0420       112.5300      -999.2500        79.1100         0.2748         6.5660         5.3070         6.7470         5.4600         2.4480 
      3109.5000        12.4650        -0.0266         0.0410       113.4200      -999.2500        81.3300         0.2780         6.6440         5.2610         6.8450         5.4560         2.4330 
      3110.0000        12.4750        -0.0269         0.0430       113.2400      -999.2500        78.2200         0.2771         6.6750         5.3370         6.8460         5.5100         2.4210 
      3110.5000        12.4700        -0.0278         0.0500       111.4700      -999.2500        77.3800         0.2653         6.7190         5.2380         6.8550         5.3780         2.4220 
