~Version Information Block
VERS .                 2.00:  CWLS LOG ASCII STANDARD - VERSION 2.00
WRAP .                   NO:  One line per depth step
~Well Information Block
#MNEM.UNIT        Data Type   Information
#---------- ----------------  -----------
STRT .F               548.5:  START DEPTH
STOP .F              5629.5:  STOP DEPTH
STEP .F                 0.5:  STEP
NULL .              -999.25:  NULL VALUE
COMP .          ADTI/LUNDIN:  COMPANY
WELL .             12/17b-1:  WELL
FLD  .            RIDGEWOOD:  FIELD
LOC  .            NORTH SEA:  LOCATION
PROV .                 UKCS:  PROVINCE
SRVC .           PATHFINDER:  SERVICE COMPANY
DATE .        DEC-07-JAN-08:  LOG DATE
UWI  .                29869:  UNIQUE WELL ID
~Curve Information Block
#MNEM.UNIT         API CODE   Curve Description
#---------- ----------------  -----------------
DEPTH.F                    :  Depth in Feet
CALI .IN                   :  Edited DNS Caliper from Standoffs
NPHI .V/V                  :  Edited DNS Neutron Porosity Correction
DRHO .G/C3                 :  Edited DNS Density - Density Correction
DTC  .US/F                 :  Edited Delta-T Compressional Lower trans
DTS  .US/F                 :  Edited Delta-T Shear Upper trans.
GR  .GAPI                 :  Edited CWR Calibrated Gamma
NLIM .V/V                  :  Edited Neutron Porosity (Lime)
R25A .OHMM                 :  Edited CWR Medium Attenuation Resistivity
R25P .OHMM                 :  Edited CWR Medium Phase Resistivity
R55A .OHMM                 :  Edited CWR Deep Attenuation Resistivity
R55P .OHMM                 :  Edited CWR Deep Phase Resistivity
RHOB .G/C3                 :  Edited DNS Density - Bulk Density
~Parameter Information Block
#MNEM.UNIT            Value   Description
#---------- ----------------  -----------
SET  .             COMP_MWD:  
PROJ .          113TH_I_1:  
DATU .                  MSL:  
DMF  .                   RT:  DRILLING-LOG MEASURED FROM
TDD  .F                5678:  
EKB  .F                 153:  
EPD  .F                   0:  ELEVATION OF PERMANENT DATUM
LATI .       58 23 51.523 N:  
LONG .       02 38 15.863 W:  
LMF  .                   RT:  
SURF .F                -203:  
~Other Information Block
       COMPOSITE
~A        DEPTH           CALI           DNPH           DRHO            DTC            DTS            GRC           NLIM           R25A           R25P           R55A           R55P           RHOB 
# ...
      5181.5000        12.4190        -0.0084         0.0470        62.4000        96.0000        28.1000         0.0869       178.8330      2873.3501       206.8100       936.9560         2.4420 
      5182.0000        12.4170        -0.0086         0.0410        58.5000        94.4000        27.0000         0.0631        29.1040      1992.8101        43.0550       427.3940         2.4060 
      5182.5000        12.4720        -0.0090         0.0470        60.8300        94.4000        26.3600         0.0436        13.7860      1310.9430       137.3640       514.7860         2.3780 
      5183.0000        12.5110        -0.0091         0.0670        63.1600        95.5000        27.9200         0.0402         7.1530       255.4390        42.1800       274.8900         2.3820 
      5183.5000        12.4630        -0.0097         0.0880        59.2000       101.9600        27.5200         0.0399         5.4670        23.5900         8.4950        47.4940         2.4260 
      5184.0000        12.4480        -0.0100         0.0950        62.4000       106.7600        26.4800         0.0538         4.8000        12.7670         3.8380        10.3450         2.4800 
      5184.5000        12.4620        -0.0088         0.0860        70.4000       111.5500        29.7800         0.0991         4.1180         7.9140         3.6320         7.0680         2.4940 
      5185.0000        12.4750        -0.0083         0.0680        72.0000       153.6000        33.8900         0.1543         3.5410         4.6890         3.6160         4.7670         2.4390 
      5185.5000        12.4120        -0.0116         0.0540        64.0000       148.8000        34.5700         0.1922         2.9180         2.7490         3.3390         2.9150         2.3410 
      5186.0000        12.4140        -0.0163         0.0490        80.0000       168.0000        31.7900         0.2083         2.4760         2.0870         2.9840         2.2020         2.2490 
      5186.5000        12.4240        -0.0170         0.0520        81.6000       156.8000        31.6600         0.2175         2.1960         1.8060         2.5810         2.0230         2.1990 
      5187.0000        12.4160        -0.0136         0.0570        96.0000       150.4000        32.2900         0.2272         2.0400         1.7130         2.3370         1.9000         2.1860 
      5187.5000        12.4160        -0.0106         0.0590        99.2000       152.0000        31.0600         0.2319         1.9710         1.6790         2.2280         1.8370         2.1880 
      5188.0000        12.4250        -0.0112         0.0570        99.2000       148.8000        29.6300         0.2314         1.9590         1.6260         2.2280         1.7750         2.1890 
      5188.5000        12.4220        -0.0120         0.0550        97.6000       152.0000        30.7900         0.2328         2.0170         1.5950         2.3490         1.6950         2.1930 
      5189.0000        12.4080        -0.0092         0.0580        99.2000       148.8000        36.8800         0.2369         2.2240         1.7530         2.5960         1.8640         2.2130 
      5189.5000        12.4230        -0.0049         0.0660        97.6000       153.6000        44.9100         0.2382         2.6030         2.4990         2.9060         2.7310         2.2540 
      5190.0000        12.4320        -0.0026         0.0720        97.6000       155.2000        48.2500         0.2319         2.9610         3.1390         3.2100         3.5010         2.3000 
      5190.5000        12.4340        -0.0027         0.0730        94.4000       158.4000        47.3700         0.2197         3.3370         3.3860         3.5710         3.7670         2.3290 
      5191.0000        12.4080        -0.0048         0.0710        92.8000       156.8000        45.5200         0.2081         3.6300         3.4940         3.8490         3.8480         2.3370 
      5191.5000        12.4040        -0.0074         0.0700        91.2000       156.8000        45.8400         0.2003         3.9040         3.6890         4.0320         3.9540         2.3370 
      5192.0000        12.4040        -0.0075         0.0720        97.6000       147.2000        47.2900         0.1962         4.2580         3.8160         4.2500         3.9380         2.3420 
      5192.5000        12.4020        -0.0066         0.0700        94.4000       152.0000        49.7500         0.1971         4.4840         3.7180         4.4480         3.8050         2.3510 
      5193.0000        12.3980        -0.0070         0.0640        94.4000       155.2000        55.0000         0.2079         4.6450         3.7570         4.6170         3.8710         2.3610 
      5193.5000        12.3940        -0.0075         0.0560        96.0000       153.6000        60.0900         0.2242         4.8470         3.9540         4.8470         4.1290         2.3690 
      5194.0000        12.3870        -0.0071         0.0520        92.8000       160.0000        60.3700         0.2318         5.0760         4.1180         5.1620         4.3810         2.3710 
      5194.5000        12.3910        -0.0056         0.0520        91.2000       164.8000        56.0000         0.2337         5.2780         4.1700         5.5790         4.5070         2.3670 
      5195.0000        12.3990        -0.0037         0.0580        93.0600       134.4000        54.7600         0.2392         5.5080         4.2810         6.0870         4.6160         2.3650 
      5195.5000        12.4080        -0.0033         0.0680        91.4600       147.2000        57.9100         0.2421         5.8890         4.5130         6.5920         4.8670         2.3740 
      5196.0000        12.4150        -0.0070         0.0760        89.8600       142.4000        61.0100         0.2283         6.4140         4.7720         7.1210         5.1740         2.3930 
      5196.5000        12.4320        -0.0125         0.0770        91.4600       137.6000        58.4500         0.2017         6.8620         5.2200         7.5480         5.6720         2.4150 
      5197.0000        12.4340        -0.0143         0.0720        86.6600       140.8000        52.4500         0.1846         7.1860         5.7600         7.8310         6.2280         2.4320 
      5197.5000        12.4440        -0.0134         0.0660        88.2600       140.8000        50.6400         0.1779         7.8190         6.1850         8.4040         6.6560         2.4440 
      5198.0000        12.4660        -0.0140         0.0600        88.2600       139.4600        49.8600         0.1711         8.6580         6.5050         9.1670         6.9950         2.4510 
      5198.5000        12.4840        -0.0158         0.0540        81.8600       144.2600        49.0900         0.1658         9.6880         7.1480         9.9880         7.6000         2.4520 
      5199.0000        12.4700        -0.0167         0.0510        81.8600       148.8000        49.5700         0.1603        10.2170         7.4910        10.4420         7.9220         2.4480 
      5199.5000        12.4500        -0.0167         0.0530        78.6600       142.4000        48.2600         0.1469        11.4410         8.2420        11.3380         8.6550         2.4460 
      5200.0000        12.4410        -0.0163         0.0620        78.6600       140.8000        43.3000         0.1255        13.3840        10.1350        12.3560        10.5730         2.4560 
      5200.5000        12.4450        -0.0154         0.0780        77.0600       137.6000        38.8500         0.1051        14.3950        12.0180        12.7300        12.3250         2.4830 
      5201.0000        12.4240        -0.0152         0.0940        75.4600       132.8000        38.8900         0.0875        16.0250        15.5990        13.4080        15.1890         2.5210 
      5201.5000        12.4130        -0.0158         0.1080        70.6600       123.2000        38.1800         0.0696        17.0260        17.2290        13.8830        16.3560         2.5570 
