~Version Information Block
VERS .                 2.00:  CWLS LOG ASCII STANDARD - VERSION 2.00
WRAP .                   NO:  One line per depth step
~Well Information Block
#MNEM.UNIT        Data Type   Information
#---------- ----------------  -----------
STRT .F               548.5:  START DEPTH
STOP .F              5629.5:  STOP DEPTH
STEP .F                 0.5:  STEP
NULL .              -999.25:  NULL VALUE
COMP .          ADTI/LUNDIN:  COMPANY
WELL .             12/17b-1:  WELL
FLD  .            RIDGEWOOD:  FIELD
LOC  .            NORTH SEA:  LOCATION
PROV .                 UKCS:  PROVINCE
SRVC .           PATHFINDER:  SERVICE COMPANY
DATE .        DEC-07-JAN-08:  LOG DATE
UWI  .                29869:  UNIQUE WELL ID
~Curve Information Block
#MNEM.UNIT         API CODE   Curve Description
#---------- ----------------  -----------------
DEPTH.F                    :  Depth in Feet
CALI .IN                   :  Edited DNS Caliper from Standoffs
NPHI .V/V                  :  Edited DNS Neutron Porosity Correction
DRHO .G/C3                 :  Edited DNS Density - Density Correction
DTC  .US/F                 :  Edited Delta-T Compressional Lower trans
DTS  .US/F                 :  Edited Delta-T Shear Upper trans.
GR  .GAPI                 :  Edited CWR Calibrated Gamma
NLIM .V/V                  :  Edited Neutron Porosity (Lime)
R25A .OHMM                 :  Edited CWR Medium Attenuation Resistivity
R25P .OHMM                 :  Edited CWR Medium Phase Resistivity
R55A .OHMM                 :  Edited CWR Deep Attenuation Resistivity
R55P .OHMM                 :  Edited CWR Deep Phase Resistivity
RHOB .G/C3                 :  Edited DNS Density - Bulk Density
~Parameter Information Block
#MNEM.UNIT            Value   Description
#---------- ----------------  -----------
SET  .             COMP_MWD:  
PROJ .          113TH_I_1:  
DATU .                  MSL:  
DMF  .                   RT:  DRILLING-LOG MEASURED FROM
TDD  .F                5678:  
EKB  .F                 153:  
EPD  .F                   0:  ELEVATION OF PERMANENT DATUM
LATI .       58 23 51.523 N:  
LONG .       02 38 15.863 W:  
LMF  .                   RT:  
SURF .F                -203:  
~Other Information Block
       COMPOSITE
~A        DEPTH           CALI           DNPH           DRHO            DTC            DTS            GRC           NLIM           R25A           R25P           R55A           R55P           RHOB 
# ...
      2455.0000      -999.2500      -999.2500      -999.2500      -999.2500      -999.2500        21.2700         0.4022      -999.2500      -999.2500      -999.2500      -999.2500      -999.2500 
      2455.5000      -999.2500      -999.2500      -999.2500      -999.2500      -999.2500        21.9500         0.4086      -999.2500      -999.2500      -999.2500      -999.2500      -999.2500 
      2456.0000      -999.2500      -999.2500      -999.2500      -999.2500      -999.2500        23.4200         0.3754      -999.2500      -999.2500      -999.2500      -999.2500      -999.2500 
      2456.5000      -999.2500      -999.2500      -999.2500      -999.2500      -999.2500        24.7400         0.3517      -999.2500      -999.2500      -999.2500      -999.2500      -999.2500 
      2457.0000      -999.2500      -999.2500      -999.2500      -999.2500      -999.2500        24.7200         0.3523      -999.2500      -999.2500      -999.2500      -999.2500      -999.2500 
      2457.5000      -999.2500      -999.2500      -999.2500      -999.2500      -999.2500        23.4200         0.3610      -999.2500      -999.2500      -999.2500      -999.2500      -999.2500 
      2458.0000      -999.2500      -999.2500      -999.2500      -999.2500      -999.2500        22.4300         0.3726      -999.2500      -999.2500      -999.2500      -999.2500      -999.2500 
      2458.5000      -999.2500      -999.2500      -999.2500      -999.2500      -999.2500        22.4600         0.3851      -999.2500      -999.2500      -999.2500      -999.2500      -999.2500 
      2459.0000        12.4930        -0.0348        -0.9260      -999.2500      -999.2500        22.2100         0.3999      -999.2500      -999.2500      -999.2500      -999.2500         1.8730 
      2459.5000        12.4940        -0.0411        -0.8990      -999.2500      -999.2500        20.3100         0.4072      -999.2500      -999.2500      -999.2500      -999.2500         1.9140 
      2460.0000        12.4920        -0.0435        -0.8700       105.2400      -999.2500        18.4600         0.4086      -999.2500      -999.2500      -999.2500      -999.2500         1.9660 
      2460.5000        12.4920        -0.0407        -0.8460       113.7800      -999.2500        18.0400         0.3822      -999.2500      -999.2500      -999.2500      -999.2500         2.0050 
      2461.0000        12.4960        -0.0360        -0.8180       117.8700      -999.2500        19.0800         0.3217      -999.2500      -999.2500      -999.2500      -999.2500         2.1710 
      2461.5000        12.7210        -0.0369        -0.8200       117.8700      -999.2500        19.2200         0.2931      -999.2500      -999.2500      -999.2500      -999.2500         2.2500 
      2462.0000        12.8220        -0.0342        -0.8020       117.8700      -999.2500        17.2500         0.3098      -999.2500      -999.2500      -999.2500      -999.2500         2.2190 
      2462.5000        12.7690        -0.0148        -0.7450       118.7600      -999.2500        15.8700         0.3759      -999.2500      -999.2500      -999.2500      -999.2500         2.1470 
      2463.0000        12.4770        -0.0059        -0.6060       116.9800      -999.2500        16.9200         0.4627      -999.2500      -999.2500      -999.2500      -999.2500         2.0560 
      2463.5000        12.4770        -0.0648        -0.3780       116.9800      -999.2500        18.6800         0.4684      -999.2500      -999.2500      -999.2500      -999.2500         1.9360 
      2464.0000        12.4770        -0.1144        -0.1320       120.8900      -999.2500        19.0400         0.3981      -999.2500      -999.2500      -999.2500      -999.2500         1.8530 
      2464.5000        12.4770        -0.0794         0.0460       123.3800      -999.2500        19.2000         0.3433      -999.2500      -999.2500      -999.2500      -999.2500         1.8150 
      2465.0000        14.2750        -0.0552         0.1300       121.7800      -999.2500        21.5900         0.3622      -999.2500      -999.2500      -999.2500      -999.2500         1.8080 
      2465.5000        13.4930        -0.0653         0.1510       122.8400      -999.2500        24.0600         0.4325      -999.2500      -999.2500      -999.2500      -999.2500         1.7830 
      2466.0000        13.4930        -0.0623         0.1430       122.1300      -999.2500        24.0600         0.4368      -999.2500      -999.2500      -999.2500      -999.2500         1.7120 
      2466.5000        13.4930        -0.0516         0.1220       120.8900      -999.2500        23.5900         0.3698      -999.2500      -999.2500      -999.2500      -999.2500         1.6050 
      2467.0000        13.4930        -0.0921         0.0860       121.9600      -999.2500        23.0000         0.3673      -999.2500      -999.2500      -999.2500      -999.2500         1.4900 
      2467.5000        13.4930        -0.1941         0.0450       123.0200      -999.2500        22.8300         0.4643      -999.2500      -999.2500      -999.2500      -999.2500         1.3950 
      2468.0000        13.4930        -0.2701         0.0110       123.2000      -999.2500        23.4500         0.6058         1.2860         0.9340         1.3920         1.8800         1.3310 
      2468.5000        13.4930        -0.2536         0.0010       123.2000      -999.2500        24.7100         0.5738         1.2550         0.9830         1.3810         1.4030         1.3220 
      2469.0000        13.4930        -0.1794         0.0150       120.5300      -999.2500        25.9900         0.3572         1.2810         1.0690         1.5670         1.3880         1.3600 
      2469.5000        13.4930        -0.1844         0.0430       118.2200      -999.2500        26.1400         0.3647         1.2790         1.0620         1.5710         1.5300         1.4270 
      2470.0000        13.4930        -0.2319         0.0710       121.4200      -999.2500        26.0500         0.4635         1.1310         0.9210         1.5230         1.2990         1.4850 
      2470.5000        13.4930        -0.2096         0.0920       123.0200      -999.2500        26.1200         0.3351         1.0650         0.7960         1.5350         1.0720         1.5240 
      2471.0000        13.4930        -0.1940         0.1050       123.2000      -999.2500        26.6300         0.2949         1.0510         0.8100         1.5270         1.0750         1.5490 
      2471.5000        13.4930        -0.2309         0.1130       123.7300      -999.2500        26.5700         0.4744         1.1250         0.8410         1.5210         1.1420         1.5630 
      2472.0000        13.4930        -0.2421         0.1180       124.6200      -999.2500        25.7100         0.5489         1.2130         0.8650         1.5280         1.1320         1.5760 
      2472.5000        13.4930        -0.1739         0.1180       125.8700      -999.2500        25.4400         0.3983         1.3190         0.9040         1.5920         1.0950         1.5810 
      2473.0000        13.4930        -0.1001         0.1120       127.2900      -999.2500        26.2900         0.2386         1.4300         0.9390         1.7290         1.0920         1.5890 
      2473.5000        13.4930        -0.0746         0.1030       125.8700      -999.2500        26.4300         0.1543         1.8570         1.2040         2.1510         1.5380         1.5980 
      2474.0000        13.4930        -0.0668         0.0950       124.4400      -999.2500        25.5900         0.1212         2.3750         2.3490         2.4450         4.3000         1.6150 
      2474.5000        13.4930        -0.0764         0.0960       122.6700      -999.2500        24.0000         0.1961         2.5950         4.1300         2.8350         8.1000         1.6300 
      2475.0000        13.4930        -0.1130         0.1090       121.7800      -999.2500        22.2100         0.3677         2.7070         5.0700         2.9290        10.1040         1.6360 
