~Version Information Block
VERS .                 2.00:  CWLS LOG ASCII STANDARD - VERSION 2.00
WRAP .                   NO:  One line per depth step
~Well Information Block
#MNEM.UNIT        Data Type   Information
#---------- ----------------  -----------
STRT .F               548.5:  START DEPTH
STOP .F              5629.5:  STOP DEPTH
STEP .F                 0.5:  STEP
NULL .              -999.25:  NULL VALUE
COMP .          ADTI/LUNDIN:  COMPANY
WELL .             12/17b-1:  WELL
FLD  .            RIDGEWOOD:  FIELD
LOC  .            NORTH SEA:  LOCATION
PROV .                 UKCS:  PROVINCE
SRVC .           PATHFINDER:  SERVICE COMPANY
DATE .        DEC-07-JAN-08:  LOG DATE
UWI  .                29869:  UNIQUE WELL ID
~Curve Information Block
#MNEM.UNIT         API CODE   Curve Description
#---------- ----------------  -----------------
DEPTH.F                    :  Depth in Feet
CALI .IN                   :  Edited DNS Caliper from Standoffs
NPHI .V/V                  :  Edited DNS Neutron Porosity Correction
DRHO .G/C3                 :  Edited DNS Density - Density Correction
DTC  .US/F                 :  Edited Delta-T Compressional Lower trans
DTS  .US/F                 :  Edited Delta-T Shear Upper trans.
GR  .GAPI                 :  Edited CWR Calibrated Gamma
NLIM .V/V                  :  Edited Neutron Porosity (Lime)
R25A .OHMM                 :  Edited CWR Medium Attenuation Resistivity
R25P .OHMM                 :  Edited CWR Medium Phase Resistivity
R55A .OHMM                 :  Edited CWR Deep Attenuation Resistivity
R55P .OHMM                 :  Edited CWR Deep Phase Resistivity
RHOB .G/C3                 :  Edited DNS Density - Bulk Density
~Parameter Information Block
#MNEM.UNIT            Value   Description
#---------- ----------------  -----------
SET  .             COMP_MWD:  
PROJ .          113TH_I_1:  
DATU .                  MSL:  
DMF  .                   RT:  DRILLING-LOG MEASURED FROM
TDD  .F                5678:  
EKB  .F                 153:  
EPD  .F                   0:  ELEVATION OF PERMANENT DATUM
LATI .       58 23 51.523 N:  
LONG .       02 38 15.863 W:  
LMF  .                   RT:  
SURF .F                -203:  
~Other Information Block
       COMPOSITE
~A        DEPTH           CALI           DNPH           DRHO            DTC            DTS            GRC           NLIM           R25A           R25P           R55A           R55P           RHOB 
# ...
      2660.0000        13.2180        -0.0589         0.1240       110.9300      -999.2500        36.2900         0.3250         2.0200         2.0450         2.1060         2.2530         2.1950 
      2660.5000        13.4500        -0.0727         0.1200       112.1800      -999.2500        34.8200         0.2963         2.0060         1.7260         2.0690         1.7990         2.1690 
      2661.0000        13.8140        -0.0910         0.1210       113.0700      -999.2500        31.9900         0.2718         2.0260         1.5880         2.0770         1.5920         2.1490 
      2661.5000        13.7840        -0.0972         0.1270       112.5300      -999.2500        33.5500         0.2672         2.1690         1.8640         2.1280         1.8620         2.1450 
      2662.0000        13.7560        -0.0908         0.1380       112.0000      -999.2500        37.1900         0.2449         2.3600         2.1230         2.2870         2.1290         2.1620 
      2662.5000        13.7070        -0.0796         0.1470       111.8200      -999.2500        37.9500         0.2019         2.6670         2.3650         2.6370         2.4090         2.1990 
      2663.0000        13.6740        -0.0664         0.1470       110.9300      -999.2500        37.1300         0.1619         2.9750         2.6280         3.0100         2.7270         2.2560 
      2663.5000        13.5810        -0.0536         0.1330       106.6700      -999.2500        35.2500         0.1434         3.4000         3.6210         3.3870         3.8090         2.3160 
      2664.0000        13.4030        -0.0456         0.1100        99.9100      -999.2500        35.4000         0.1498         3.7440         5.1340         3.5530         5.3660         2.3540 
      2664.5000        13.2400        -0.0440         0.0950        96.5300      -999.2500        39.3700         0.1749         3.9710         5.6260         3.6930         5.9160         2.3560 
      2665.0000        13.0330        -0.0468         0.1010        95.1100      -999.2500        44.2000         0.2147         4.1220         4.7540         3.8260         4.9650         2.3420 
      2665.5000        13.0050        -0.0511         0.1200        95.2900      -999.2500        47.8400         0.2564         4.1110         3.7650         3.8660         3.8230         2.3280 
      2666.0000        12.9340        -0.0504         0.1310       100.2700      -999.2500        51.3400         0.2765         3.9160         3.2490         3.7590         3.1790         2.3180 
      2666.5000        12.8990        -0.0423         0.1260       107.3800      -999.2500        55.6600         0.2651         3.8150         2.8920         3.7670         2.8650         2.3000 
      2667.0000        12.8040        -0.0359         0.1090       108.6200      -999.2500        59.8700         0.2469         3.7240         2.7550         3.7710         2.8170         2.2720 
      2667.5000        12.8480        -0.0370         0.0990       107.7300      -999.2500        58.0300         0.2398         3.5740         2.8870         3.6830         3.0540         2.2530 
      2668.0000        12.9020        -0.0407         0.0970       107.2000      -999.2500        51.4400         0.2358         3.5340         3.0470         3.6810         3.2780         2.2500 
      2668.5000        12.9010        -0.0418         0.1020       107.2000      -999.2500        47.2600         0.2327         3.5830         3.1040         3.8140         3.3830         2.2600 
      2669.0000        12.8750        -0.0403         0.1030       106.6700      -999.2500        47.3600         0.2342         3.7180         3.1500         3.9550         3.3810         2.2670 
      2669.5000        12.8440        -0.0372         0.1050       105.9600      -999.2500        48.4700         0.2389         3.8830         3.2690         4.0820         3.3840         2.2740 
      2670.0000        12.8130        -0.0327         0.1120       106.8400      -999.2500        48.1700         0.2338         4.0940         3.3470         4.2530         3.3680         2.2930 
      2670.5000        12.8280        -0.0278         0.1250       107.0200      -999.2500        47.0900         0.2112         4.3090         3.4380         4.4190         3.4370         2.3310 
      2671.0000        12.8410        -0.0249         0.1330       102.0400      -999.2500        45.9100         0.1814         4.5610         3.7600         4.5830         3.8260         2.3830 
      2671.5000        12.8290        -0.0231         0.1260        95.2900      -999.2500        42.9600         0.1529         4.8090         4.7170         4.6550         4.9090         2.4220 
      2672.0000        12.7490        -0.0220         0.1090        91.0200      -999.2500        37.5900         0.1407         5.0430         5.9250         4.7120         6.1550         2.4340 
      2672.5000        12.6830        -0.0229         0.0920        91.3800      -999.2500        36.1800         0.1576         5.1380         5.7120         4.8430         5.8460         2.4110 
      2673.0000        12.5400        -0.0239         0.0880        93.1600      -999.2500        39.8000         0.1872         5.1290         4.7040         4.9740         4.7790         2.3830 
      2673.5000        12.5630        -0.0250         0.0920        93.3300      -999.2500        41.9100         0.2091         5.0920         4.1640         4.9340         4.2160         2.3650 
      2674.0000        12.6570        -0.0269         0.1010        94.0400      -999.2500        42.4700         0.2249         4.9360         4.2620         4.7030         4.2600         2.3670 
      2674.5000        12.7270        -0.0261         0.1090        97.2400      -999.2500        45.2100         0.2379         4.6890         4.5980         4.4400         4.5760         2.3750 
      2675.0000        12.7370        -0.0256         0.1150        99.0200      -999.2500        48.4400         0.2442         4.5680         4.1720         4.4000         4.2470         2.3760 
      2675.5000        12.7530        -0.0306         0.1180       100.4400      -999.2500        51.3800         0.2445         4.4240         3.6080         4.3820         3.7460         2.3620 
      2676.0000        12.7720        -0.0382         0.1130       102.0400      -999.2500        53.3400         0.2436         4.2160         3.3800         4.2860         3.5160         2.3380 
      2676.5000        12.7710        -0.0426         0.1020       104.1800      -999.2500        53.3500         0.2428         4.0010         3.4360         4.0860         3.5520         2.3150 
      2677.0000        12.7520        -0.0405         0.0920       105.4200      -999.2500        51.6900         0.2364         3.8940         3.3880         3.9770         3.5240         2.2990 
      2677.5000        12.7830        -0.0384         0.0910       105.4200      -999.2500        48.0300         0.2327         3.7820         3.2440         3.9200         3.3990         2.2880 
      2678.0000        12.8510        -0.0434         0.0980       104.5300      -999.2500        43.1900         0.2438         3.6460         3.1420         3.7940         3.2800         2.2780 
      2678.5000        12.9480        -0.0512         0.1120       105.0700      -999.2500        40.3000         0.2567         3.5270         3.0710         3.6680         3.1790         2.2700 
      2679.0000        13.0170        -0.0548         0.1270       106.3100      -999.2500        39.7700         0.2498         3.4360         3.0180         3.5580         3.1040         2.2640 
      2679.5000        13.0050        -0.0526         0.1370       105.7800      -999.2500        40.5700         0.2326         3.3720         2.9880         3.5050         3.0570         2.2640 
      2680.0000        12.9780        -0.0470         0.1350       105.7800      -999.2500        44.5700         0.2292         3.3370         2.9110         3.4560         2.9640         2.2610 
