~Version Information Block
VERS .                 2.00:  CWLS LOG ASCII STANDARD - VERSION 2.00
WRAP .                   NO:  One line per depth step
~Well Information Block
#MNEM.UNIT        Data Type   Information
#---------- ----------------  -----------
STRT .F               548.5:  START DEPTH
STOP .F              5629.5:  STOP DEPTH
STEP .F                 0.5:  STEP
NULL .              -999.25:  NULL VALUE
COMP .          ADTI/LUNDIN:  COMPANY
WELL .             12/17b-1:  WELL
FLD  .            RIDGEWOOD:  FIELD
LOC  .            NORTH SEA:  LOCATION
PROV .                 UKCS:  PROVINCE
SRVC .           PATHFINDER:  SERVICE COMPANY
DATE .        DEC-07-JAN-08:  LOG DATE
UWI  .                29869:  UNIQUE WELL ID
~Curve Information Block
#MNEM.UNIT         API CODE   Curve Description
#---------- ----------------  -----------------
DEPTH.F                    :  Depth in Feet
CALI .IN                   :  Edited DNS Caliper from Standoffs
NPHI .V/V                  :  Edited DNS Neutron Porosity Correction
DRHO .G/C3                 :  Edited DNS Density - Density Correction
DTC  .US/F                 :  Edited Delta-T Compressional Lower trans
DTS  .US/F                 :  Edited Delta-T Shear Upper trans.
GR  .GAPI                 :  Edited CWR Calibrated Gamma
NLIM .V/V                  :  Edited Neutron Porosity (Lime)
R25A .OHMM                 :  Edited CWR Medium Attenuation Resistivity
R25P .OHMM                 :  Edited CWR Medium Phase Resistivity
R55A .OHMM                 :  Edited CWR Deep Attenuation Resistivity
R55P .OHMM                 :  Edited CWR Deep Phase Resistivity
RHOB .G/C3                 :  Edited DNS Density - Bulk Density
~Parameter Information Block
#MNEM.UNIT            Value   Description
#---------- ----------------  -----------
SET  .             COMP_MWD:  
PROJ .          113TH_I_1:  
DATU .                  MSL:  
DMF  .                   RT:  DRILLING-LOG MEASURED FROM
TDD  .F                5678:  
EKB  .F                 153:  
EPD  .F                   0:  ELEVATION OF PERMANENT DATUM
LATI .       58 23 51.523 N:  
LONG .       02 38 15.863 W:  
LMF  .                   RT:  
SURF .F                -203:  
~Other Information Block
       COMPOSITE
~A        DEPTH           CALI           DNPH           DRHO            DTC            DTS            GRC           NLIM           R25A           R25P           R55A           R55P           RHOB 
# ...
      4956.0000        12.4010        -0.0084         0.0560        84.8000       150.4000        44.8700         0.1668         7.8130         6.2810         8.8140         6.6980         2.3680 
      4956.5000        12.4060        -0.0087         0.0560        84.8000       142.4000        43.2800         0.1724         7.7240         6.1020         8.6970         6.5490         2.3620 
      4957.0000        12.4140        -0.0082         0.0580        84.8000       142.4000        42.2000         0.1705         7.7410         6.0830         8.8500         6.3390         2.3640 
      4957.5000        12.4010        -0.0071         0.0600        84.8000       137.6000        42.6600         0.1675         8.0040         6.2030         9.0570         6.2230         2.3810 
      4958.0000        12.4010        -0.0066         0.0530        86.4000       140.8000        45.6300         0.1648         8.2080         6.2900         9.1130         6.3600         2.4020 
      4958.5000        12.4210        -0.0079         0.0420        80.0000       136.0000        48.1600         0.1569         8.6130         6.6110         9.2110         6.7850         2.4170 
      4959.0000        12.4070        -0.0102         0.0280        81.6000       134.4000        48.0200         0.1432         9.2030         6.8050         9.5930         6.9180         2.4200 
      4959.5000        12.4200        -0.0097         0.0230        84.8000       129.6000        47.7100         0.1303         9.7750         7.2000         9.9470         7.1870         2.4230 
      4960.0000        12.4530        -0.0065         0.0270        83.2000       144.0000        45.9200         0.1179        10.1190         8.2390        10.1020         7.9720         2.4380 
      4960.5000        12.4640        -0.0039         0.0360        80.0000       136.0000        42.7900         0.1070        10.6550         9.4860        10.3420         9.0600         2.4640 
      4961.0000        12.4410        -0.0030         0.0450        72.0000       136.5300        39.8800         0.1030        11.0390        10.3440        10.5170         9.8670         2.4960 
      4961.5000        12.4260        -0.0047         0.0500        76.8000       140.2700        37.7000         0.1008        11.3710        11.1020        10.5690        10.6720         2.5220 
      4962.0000        12.4120        -0.0076         0.0570        68.8000       150.4000        37.0600         0.0989        11.5360        11.5350        10.4860        11.2280         2.5400 
      4962.5000        12.4140        -0.0085         0.0650        68.8000       155.2000        38.0100         0.1090        11.4420        11.6630        10.2640        11.1370         2.5450 
      4963.0000        12.4350        -0.0068         0.0730        78.4000       155.2000        38.7300         0.1345        11.2040        11.2330        10.0070        10.6570         2.5370 
      4963.5000        12.4560        -0.0049         0.0720        76.8000       153.0700        38.8800         0.1596        10.8460        10.2480         9.8200         9.8080         2.5120 
      4964.0000        12.4450        -0.0044         0.0660        76.8000       160.0000        40.1800         0.1704        10.3290         8.9830         9.5640         8.8180         2.4760 
      4964.5000        12.4230        -0.0049         0.0530        78.4000       158.4000        42.8300         0.1708         9.8260         8.0210         9.3180         8.0810         2.4340 
      4965.0000        12.4180        -0.0057         0.0440        83.2000       164.8000        44.3900         0.1755         9.2540         7.2920         9.0270         7.5240         2.3970 
      4965.5000        12.4350        -0.0073         0.0380        83.2000       155.2000        43.4900         0.1888         8.3420         6.7230         8.5500         7.0590         2.3660 
      4966.0000        12.4280        -0.0087         0.0410        89.6000       163.2000        41.5000         0.2034         7.3720         6.1860         7.9230         6.5960         2.3500 
      4966.5000        12.4120        -0.0091         0.0500        97.6000       156.8000        41.9300         0.2158         6.8790         5.7640         7.5080         6.2230         2.3450 
      4967.0000        12.4040        -0.0104         0.0600        96.0000       157.9900        45.4300         0.2218         6.5230         5.2310         7.3480         5.6210         2.3500 
      4967.5000        12.4200        -0.0120         0.0610        96.0000       160.4300        51.4600         0.2227         6.1220         4.6740         7.0290         5.0200         2.3510 
      4968.0000        12.4300        -0.0126         0.0590        99.2000       160.4300        58.6600         0.2183         5.8930         4.4590         6.8380         4.7390         2.3490 
      4968.5000        12.4460        -0.0127         0.0550        94.4000       148.8000        61.3900         0.2037         5.7810         4.2770         6.7540         4.5450         2.3490 
      4969.0000        12.4410        -0.0123         0.0520        91.2000       147.2000        58.9200         0.1870         5.7000         4.1360         6.6950         4.4390         2.3550 
      4969.5000        12.4340        -0.0119         0.0470        89.6000       148.8000        55.4700         0.1769         5.7400         4.2960         6.7220         4.6310         2.3570 
      4970.0000        12.4140        -0.0114         0.0430        84.8000       144.0000        53.6000         0.1743         5.8600         4.6860         6.6950         5.0710         2.3500 
      4970.5000        12.4010        -0.0104         0.0430        85.0600       145.6000        50.6700         0.1727         6.0670         5.1270         6.8050         5.5120         2.3440 
      4971.0000        12.4010        -0.0085         0.0480        83.4600       148.8000        43.6400         0.1639         6.4500         5.1470         7.2670         5.5370         2.3560 
      4971.5000        12.4090        -0.0062         0.0550        83.4600       147.2000        33.7500         0.1496         6.9480         5.3060         7.7300         5.7120         2.3930 
      4972.0000        12.4330        -0.0047         0.0600        81.8600       140.8000        33.5800         0.1338         7.5680         5.9460         8.1200         6.3050         2.4370 
      4972.5000        12.4410        -0.0045         0.0630        78.6600       136.0000        38.0800         0.1199         8.6120         6.9620         8.5850         7.1780         2.4740 
      4973.0000        12.4290        -0.0058         0.0630        78.6600       134.4000        41.1300         0.1123         9.5030         8.0780         9.0270         8.1730         2.4990 
      4973.5000        12.4330        -0.0075         0.0640        78.6600       140.2700        43.1500         0.1094        10.4740         9.3480         9.5380         9.3200         2.5190 
      4974.0000        12.4330        -0.0081         0.0660        77.0600       140.2700        42.9900         0.1083        11.2380        10.3710         9.8890        10.1990         2.5360 
      4974.5000        12.4220        -0.0081         0.0680        75.4600       150.4000        41.7400         0.1113        11.7780        11.3010        10.1130        10.9190         2.5470 
      4975.0000        12.4320        -0.0080         0.0710        78.6600       142.4000        42.7400         0.1202        12.2610        11.8580        10.3250        11.3350         2.5510 
      4975.5000        12.4310        -0.0069         0.0700        80.2600       139.2000        43.5100         0.1338        12.3520        11.7330        10.3640        11.2350         2.5430 
      4976.0000        12.4500        -0.0051         0.0700        80.2600       145.6000        42.5100         0.1505        12.1440        11.3740        10.2710        10.9350         2.5300 
