~Version Information Block
VERS .                 2.00:  CWLS LOG ASCII STANDARD - VERSION 2.00
WRAP .                   NO:  One line per depth step
~Well Information Block
#MNEM.UNIT        Data Type   Information
#---------- ----------------  -----------
STRT .F               548.5:  START DEPTH
STOP .F              5629.5:  STOP DEPTH
STEP .F                 0.5:  STEP
NULL .              -999.25:  NULL VALUE
COMP .          ADTI/LUNDIN:  COMPANY
WELL .             12/17b-1:  WELL
FLD  .            RIDGEWOOD:  FIELD
LOC  .            NORTH SEA:  LOCATION
PROV .                 UKCS:  PROVINCE
SRVC .           PATHFINDER:  SERVICE COMPANY
DATE .        DEC-07-JAN-08:  LOG DATE
UWI  .                29869:  UNIQUE WELL ID
~Curve Information Block
#MNEM.UNIT         API CODE   Curve Description
#---------- ----------------  -----------------
DEPTH.F                    :  Depth in Feet
CALI .IN                   :  Edited DNS Caliper from Standoffs
NPHI .V/V                  :  Edited DNS Neutron Porosity Correction
DRHO .G/C3                 :  Edited DNS Density - Density Correction
DTC  .US/F                 :  Edited Delta-T Compressional Lower trans
DTS  .US/F                 :  Edited Delta-T Shear Upper trans.
GR  .GAPI                 :  Edited CWR Calibrated Gamma
NLIM .V/V                  :  Edited Neutron Porosity (Lime)
R25A .OHMM                 :  Edited CWR Medium Attenuation Resistivity
R25P .OHMM                 :  Edited CWR Medium Phase Resistivity
R55A .OHMM                 :  Edited CWR Deep Attenuation Resistivity
R55P .OHMM                 :  Edited CWR Deep Phase Resistivity
RHOB .G/C3                 :  Edited DNS Density - Bulk Density
~Parameter Information Block
#MNEM.UNIT            Value   Description
#---------- ----------------  -----------
SET  .             COMP_MWD:  
PROJ .          113TH_I_1:  
DATU .                  MSL:  
DMF  .                   RT:  DRILLING-LOG MEASURED FROM
TDD  .F                5678:  
EKB  .F                 153:  
EPD  .F                   0:  ELEVATION OF PERMANENT DATUM
LATI .       58 23 51.523 N:  
LONG .       02 38 15.863 W:  
LMF  .                   RT:  
SURF .F                -203:  
~Other Information Block
       COMPOSITE
~A        DEPTH           CALI           DNPH           DRHO            DTC            DTS            GRC           NLIM           R25A           R25P           R55A           R55P           RHOB 
# ...
      5386.5000        12.4620        -0.0153         0.0870        85.0600       147.2000        44.1400         0.1576         6.5590         5.5810         6.5220         5.6030         2.4130 
      5387.0000        12.4860        -0.0155         0.0920        85.0600       148.8000        42.1100         0.1545         6.4430         5.9060         6.3820         6.0560         2.4180 
      5387.5000        12.5110        -0.0147         0.0920        81.8600       148.8000        40.5200         0.1481         6.2620         5.9270         6.2130         6.2620         2.4240 
      5388.0000        12.4900        -0.0141         0.0890        86.6600       147.2000        39.7900         0.1365         6.0490         5.6850         6.0260         6.0910         2.4300 
      5388.5000        12.4850        -0.0139         0.0850        86.6600       137.6000        38.6600         0.1282         5.7590         5.3830         5.8120         5.6890         2.4310 
      5389.0000        12.4640        -0.0132         0.0830        85.0600       137.6000        36.2400         0.1305         5.4260         5.0700         5.6010         5.2290         2.4260 
      5389.5000        12.4360        -0.0114         0.0810        80.2600       140.2700        34.7100         0.1375         5.0410         4.5040         5.3270         4.5880         2.4140 
      5390.0000        12.4090        -0.0093         0.0760        81.8600       140.2700        35.6800         0.1455         4.7730         4.0890         5.2150         4.1840         2.3970 
      5390.5000        12.4120        -0.0075         0.0720        78.6600       145.6000        39.7200         0.1544         4.6550         3.9660         5.1330         4.0860         2.3800 
      5391.0000        12.4150        -0.0069         0.0680        78.6600       145.6000        41.7100         0.1586         4.4770         3.8500         4.9540         4.0480         2.3680 
      5391.5000        12.4140        -0.0075         0.0670        81.8600       149.3300        39.3500         0.1608         4.2730         3.7740         4.7790         4.0280         2.3570 
      5392.0000        12.4160        -0.0080         0.0700        83.4600       144.0000        35.4400         0.1650         4.2810         3.4760         4.9260         3.6830         2.3470 
      5392.5000        12.4110        -0.0084         0.0750        81.8600       144.0000        33.4900         0.1692         4.3550         3.3920         5.0470         3.5820         2.3390 
      5393.0000        12.4070        -0.0096         0.0810        83.4600       144.0000        36.8800         0.1742         4.6260         3.6660         5.3270         3.8610         2.3410 
      5393.5000        12.4020        -0.0117         0.0840        86.6600       148.8000        43.5500         0.1787         5.0040         4.2020         5.6020         4.4510         2.3550 
      5394.0000        12.4270        -0.0125         0.0840        85.0600       145.6000        48.8600         0.1788         5.4190         4.7200         5.9590         5.0490         2.3780 
      5394.5000        12.4260        -0.0102         0.0810        86.6600       158.4000        52.1400         0.1761         5.8280         5.1920         6.2390         5.5570         2.4030 
      5395.0000        12.4230        -0.0071         0.0780        86.6600       140.8000        53.2600         0.1703         6.3760         5.6600         6.7310         5.9260         2.4240 
      5395.5000        12.4500        -0.0061         0.0780        88.2600       155.2000        51.9300         0.1630         7.0630         6.1310         7.2100         6.2300         2.4350 
      5396.0000        12.4690        -0.0069         0.0830        84.8000       164.8000        49.8300         0.1563         7.5220         6.3950         7.4940         6.4000         2.4450 
      5396.5000        12.4680        -0.0077         0.0940        83.2000       156.8000        47.4500         0.1362         8.5360         7.1250         8.2610         6.9250         2.4600 
      5397.0000        12.4920        -0.0078         0.1080        80.0000       145.6000        43.9200         0.1020         9.2140         8.5800         8.5740         8.2950         2.4880 
      5397.5000        12.5140        -0.0081         0.1120        76.8000       144.0000        40.4800         0.0745         9.5350        10.6230         8.7360        10.0280         2.5130 
      5398.0000        12.4960        -0.0079         0.1080        75.2000       152.0000        38.2600         0.0635         9.7820        11.2740         8.9140        10.6160         2.5330 
      5398.5000        12.4270        -0.0056         0.1010        76.8000       152.0000        36.9600         0.0714        10.0400        11.5390         9.1500        10.9490         2.5520 
      5399.0000        12.4260        -0.0044         0.1040        70.4000       160.0000        35.1100         0.0934        10.1150        11.0120         9.3980        10.5100         2.5760 
      5399.5000        12.4230        -0.0056         0.1030        70.4000       169.6000        35.7100         0.1167        10.0390         9.7260         9.5820         9.3270         2.5810 
      5400.0000        12.4160        -0.0071         0.0930        76.8000       164.8000        39.8000         0.1345         9.9830         8.5230         9.7470         8.2970         2.5610 
      5400.5000        12.4350        -0.0088         0.0760        64.0000       158.4000        44.4300         0.1454         9.9280         8.0970         9.6620         7.9600         2.5250 
      5401.0000        12.4280        -0.0098         0.0660        72.0000       164.8000        47.6500         0.1532         9.6590         8.0060         9.4590         7.9090         2.4990 
      5401.5000        12.4590        -0.0082         0.0640        75.2000       158.4000        49.5900         0.1632         9.0910         7.4870         9.0760         7.5160         2.4870 
      5402.0000        12.4500        -0.0063         0.0690        84.8000       156.8000        50.7900         0.1738         8.7380         7.0100         8.8720         7.1740         2.4880 
      5402.5000        12.4390        -0.0081         0.0790        86.4000       158.4000        51.1600         0.1800         8.3940         6.4530         8.7670         6.7140         2.4950 
      5403.0000        12.4380        -0.0110         0.0940        76.8000       160.0000        54.7600         0.1787         8.0480         6.0650         8.5950         6.4030         2.5090 
      5403.5000        12.4330        -0.0118         0.1040        89.6000       163.2000        56.4400         0.1744         7.8550         5.8700         8.4360         6.2160         2.5220 
      5404.0000        12.4290        -0.0116         0.1050        88.0000       144.0000        56.7600         0.1721         7.7440         5.7590         8.3700         6.1130         2.5240 
      5404.5000        12.4210        -0.0115         0.0980        89.6000       145.6000        56.1900         0.1659         7.6030         5.6910         8.2500         6.0120         2.5130 
      5405.0000        12.4510        -0.0119         0.0950        86.4000       145.6000        52.2900         0.1553         7.4750         5.6640         8.0650         5.9610         2.4950 
      5405.5000        12.5570        -0.0126         0.0990        84.8000       144.0000        44.9900         0.1512         7.3600         5.6090         7.9620         5.8770         2.4790 
      5406.0000        12.5890        -0.0116         0.1040        83.2000       144.0000        42.5600         0.1547         7.3190         5.5700         7.9220         5.8250         2.4670 
      5406.5000        12.5040        -0.0098         0.1030        81.8600       148.8000        42.6700         0.1574         7.2880         5.7500         7.8370         5.9980         2.4570 
