~Version Information Block
VERS .                 2.00:  CWLS LOG ASCII STANDARD - VERSION 2.00
WRAP .                   NO:  One line per depth step
~Well Information Block
#MNEM.UNIT        Data Type   Information
#---------- ----------------  -----------
STRT .F               548.5:  START DEPTH
STOP .F              5629.5:  STOP DEPTH
STEP .F                 0.5:  STEP
NULL .              -999.25:  NULL VALUE
COMP .          ADTI/LUNDIN:  COMPANY
WELL .             12/17b-1:  WELL
FLD  .            RIDGEWOOD:  FIELD
LOC  .            NORTH SEA:  LOCATION
PROV .                 UKCS:  PROVINCE
SRVC .           PATHFINDER:  SERVICE COMPANY
DATE .        DEC-07-JAN-08:  LOG DATE
UWI  .                29869:  UNIQUE WELL ID
~Curve Information Block
#MNEM.UNIT         API CODE   Curve Description
#---------- ----------------  -----------------
DEPTH.F                    :  Depth in Feet
CALI .IN                   :  Edited DNS Caliper from Standoffs
NPHI .V/V                  :  Edited DNS Neutron Porosity Correction
DRHO .G/C3                 :  Edited DNS Density - Density Correction
DTC  .US/F                 :  Edited Delta-T Compressional Lower trans
DTS  .US/F                 :  Edited Delta-T Shear Upper trans.
GR  .GAPI                 :  Edited CWR Calibrated Gamma
NLIM .V/V                  :  Edited Neutron Porosity (Lime)
R25A .OHMM                 :  Edited CWR Medium Attenuation Resistivity
R25P .OHMM                 :  Edited CWR Medium Phase Resistivity
R55A .OHMM                 :  Edited CWR Deep Attenuation Resistivity
R55P .OHMM                 :  Edited CWR Deep Phase Resistivity
RHOB .G/C3                 :  Edited DNS Density - Bulk Density
~Parameter Information Block
#MNEM.UNIT            Value   Description
#---------- ----------------  -----------
SET  .             COMP_MWD:  
PROJ .          113TH_I_1:  
DATU .                  MSL:  
DMF  .                   RT:  DRILLING-LOG MEASURED FROM
TDD  .F                5678:  
EKB  .F                 153:  
EPD  .F                   0:  ELEVATION OF PERMANENT DATUM
LATI .       58 23 51.523 N:  
LONG .       02 38 15.863 W:  
LMF  .                   RT:  
SURF .F                -203:  
~Other Information Block
       COMPOSITE
~A        DEPTH           CALI           DNPH           DRHO            DTC            DTS            GRC           NLIM           R25A           R25P           R55A           R55P           RHOB 
# ...
      4341.0000        12.7440        -0.0193         0.0790       104.7100      -999.2500        40.8800         0.2274         5.8370         5.2710         6.0960         5.1320         2.3460 
      4341.5000        12.7250        -0.0243         0.0780        99.7300      -999.2500        40.5200         0.2365         5.2910         4.3170         5.4990         4.3710         2.2650 
      4342.0000        12.6190        -0.0224         0.0770       101.1600      -999.2500        37.8200         0.2308         4.9390         3.8300         5.2190         3.7350         2.2020 
      4342.5000        12.6110        -0.0185         0.0840        99.0200      -999.2500        36.2200         0.2279         4.7030         3.5820         5.1880         3.4880         2.1750 
      4343.0000        12.5890        -0.0172         0.0940        92.9800      -999.2500        35.6900         0.2289         4.6260         3.6290         5.2670         3.5000         2.1870 
      4343.5000        12.6130        -0.0203         0.0990        88.7100      -999.2500        38.7800         0.2287         4.6610         3.8250         5.3840         3.7880         2.2180 
      4344.0000        12.6440        -0.0237         0.0960        87.6400      -999.2500        46.0100         0.2295         4.7700         4.1030         5.5910         4.1730         2.2510 
      4344.5000        12.5670        -0.0228         0.0850        93.1600      -999.2500        51.7100         0.2291         4.8820         4.5140         5.5240         4.7640         2.2730 
      4345.0000        12.5240        -0.0204         0.0740        96.8900      -999.2500        52.6900         0.2240         5.0030         4.8270         5.4200         5.1670         2.2840 
      4345.5000        12.5240        -0.0198         0.0680        97.9600      -999.2500        49.8000         0.2188         5.1560         4.8990         5.4550         5.0790         2.2830 
      4346.0000        12.5850        -0.0215         0.0720        95.6400      -999.2500        45.8500         0.2185         5.2680         4.8170         5.4250         4.8850         2.2770 
      4346.5000        12.5450        -0.0203         0.0810        95.2900      -999.2500        44.1200         0.2262         5.3200         4.6680         5.4130         4.6990         2.2710 
      4347.0000        12.5360        -0.0167         0.0880        96.0000      -999.2500        45.9400         0.2341         5.3400         4.4450         5.4180         4.4760         2.2690 
      4347.5000        12.5460        -0.0159         0.0880        97.7800      -999.2500        49.8900         0.2370         5.3300         4.3920         5.4370         4.4670         2.2730 
      4348.0000        12.5300        -0.0171         0.0810       101.6900      -999.2500        53.0600         0.2466         5.3440         4.4300         5.4830         4.5600         2.2840 
      4348.5000        12.5020        -0.0198         0.0710       104.5300      -999.2500        56.2700         0.2597         5.3810         4.5010         5.5640         4.7070         2.2990 
      4349.0000        12.4870        -0.0230         0.0600       105.6000      -999.2500        61.2500         0.2542         5.4590         4.5420         5.7020         4.8370         2.3090 
      4349.5000        12.4900        -0.0245         0.0520       105.0700      -999.2500        63.6600         0.2338         5.5070         4.5410         5.7950         4.8460         2.3110 
      4350.0000        12.4940        -0.0241         0.0470       102.9300      -999.2500        59.5900         0.2286         5.5190         4.5130         5.8860         4.7590         2.2990 
      4350.5000        12.4990        -0.0209         0.0450       101.8700      -999.2500        54.5600         0.2407         5.6960         4.5540         6.0700         4.7270         2.2840 
      4351.0000        12.4810        -0.0161         0.0410       103.4700      -999.2500        54.7600         0.2523         5.9090         4.6310         6.2510         4.8350         2.2720 
      4351.5000        12.4850        -0.0135         0.0400       104.1800      -999.2500        58.0700         0.2561         6.2130         4.7970         6.5180         5.0210         2.2740 
      4352.0000        12.5100        -0.0127         0.0400       100.4400      -999.2500        57.4400         0.2442         6.6110         5.2520         6.7960         5.5400         2.2860 
      4352.5000        12.5690        -0.0140         0.0440        97.9600      -999.2500        54.8400         0.2210         6.8950         5.8620         6.9560         6.1680         2.3090 
      4353.0000        12.6630        -0.0171         0.0500        97.0700      -999.2500        53.8800         0.2032         7.3910         6.1780         7.3540         6.4610         2.3340 
      4353.5000        12.5860        -0.0188         0.0540        96.3600      -999.2500        53.2100         0.2041         7.9320         6.2950         7.7680         6.5680         2.3560 
      4354.0000        12.5170        -0.0194         0.0570        94.7600      -999.2500        53.2700         0.2201         8.2360         6.3870         8.0260         6.6610         2.3680 
      4354.5000        12.5030        -0.0185         0.0560        96.5300      -999.2500        54.5800         0.2289         8.3250         6.4270         8.1010         6.6940         2.3670 
      4355.0000        12.4990        -0.0160         0.0600        99.0200      -999.2500        53.2800         0.2255         8.7210         6.7040         8.3710         6.9640         2.3680 
      4355.5000        12.5020        -0.0137         0.0670        96.8900      -999.2500        47.7200         0.2191         8.7720         6.7470         8.4300         7.0080         2.3800 
      4356.0000        12.5040        -0.0136         0.0760        94.2200      -999.2500        44.8900         0.2081         8.9970         6.9610         8.5390         7.2480         2.4070 
      4356.5000        12.4870        -0.0171         0.0760        91.3800      -999.2500        46.2900         0.1913         9.1590         7.5700         8.5610         7.8900         2.4320 
      4357.0000        12.4780        -0.0219         0.0660        89.6000      -999.2500        49.1900         0.1804         9.1460         7.9510         8.4980         8.2800         2.4410 
      4357.5000        12.4690        -0.0214         0.0510        91.2000      -999.2500        51.4000         0.1812         9.1570         7.8850         8.4760         8.2070         2.4280 
      4358.0000        12.4700        -0.0164         0.0430        93.3300      -999.2500        53.2500         0.1915         9.0370         7.5490         8.3990         7.7320         2.4060 
      4358.5000        12.4720        -0.0140         0.0430        94.0400      -999.2500        54.2800         0.2091         8.8300         7.0390         8.3770         7.0930         2.3880 
      4359.0000        12.4660        -0.0145         0.0490        90.4900      -999.2500        53.9100         0.2105         8.5880         6.4090         8.3560         6.4780         2.3810 
      4359.5000        12.4690        -0.0152         0.0460        83.5600      -999.2500        50.9200         0.1819         8.3150         6.1770         8.1920         6.3290         2.3780 
      4360.0000        12.4730        -0.0152         0.0380        81.4200      -999.2500        48.5000         0.1524         7.8640         6.5020         7.7570         6.7090         2.3770 
      4360.5000        12.4820        -0.0140         0.0320        88.3600      -999.2500        49.1900         0.1522         7.4350         6.6530         7.4000         6.8820         2.3770 
      4361.0000        12.4690        -0.0119         0.0370        94.4000      -999.2500        50.7600         0.1768         7.1820         6.7530         7.2030         7.0140         2.3760 
