~Version Information Block
VERS .                 2.00:  CWLS LOG ASCII STANDARD - VERSION 2.00
WRAP .                   NO:  One line per depth step
~Well Information Block
#MNEM.UNIT        Data Type   Information
#---------- ----------------  -----------
STRT .F               548.5:  START DEPTH
STOP .F              5629.5:  STOP DEPTH
STEP .F                 0.5:  STEP
NULL .              -999.25:  NULL VALUE
COMP .          ADTI/LUNDIN:  COMPANY
WELL .             12/17b-1:  WELL
FLD  .            RIDGEWOOD:  FIELD
LOC  .            NORTH SEA:  LOCATION
PROV .                 UKCS:  PROVINCE
SRVC .           PATHFINDER:  SERVICE COMPANY
DATE .        DEC-07-JAN-08:  LOG DATE
UWI  .                29869:  UNIQUE WELL ID
~Curve Information Block
#MNEM.UNIT         API CODE   Curve Description
#---------- ----------------  -----------------
DEPTH.F                    :  Depth in Feet
CALI .IN                   :  Edited DNS Caliper from Standoffs
NPHI .V/V                  :  Edited DNS Neutron Porosity Correction
DRHO .G/C3                 :  Edited DNS Density - Density Correction
DTC  .US/F                 :  Edited Delta-T Compressional Lower trans
DTS  .US/F                 :  Edited Delta-T Shear Upper trans.
GR  .GAPI                 :  Edited CWR Calibrated Gamma
NLIM .V/V                  :  Edited Neutron Porosity (Lime)
R25A .OHMM                 :  Edited CWR Medium Attenuation Resistivity
R25P .OHMM                 :  Edited CWR Medium Phase Resistivity
R55A .OHMM                 :  Edited CWR Deep Attenuation Resistivity
R55P .OHMM                 :  Edited CWR Deep Phase Resistivity
RHOB .G/C3                 :  Edited DNS Density - Bulk Density
~Parameter Information Block
#MNEM.UNIT            Value   Description
#---------- ----------------  -----------
SET  .             COMP_MWD:  
PROJ .          113TH_I_1:  
DATU .                  MSL:  
DMF  .                   RT:  DRILLING-LOG MEASURED FROM
TDD  .F                5678:  
EKB  .F                 153:  
EPD  .F                   0:  ELEVATION OF PERMANENT DATUM
LATI .       58 23 51.523 N:  
LONG .       02 38 15.863 W:  
LMF  .                   RT:  
SURF .F                -203:  
~Other Information Block
       COMPOSITE
~A        DEPTH           CALI           DNPH           DRHO            DTC            DTS            GRC           NLIM           R25A           R25P           R55A           R55P           RHOB 
# ...
      5591.5000        12.4420        -0.0066         0.0440      -999.2500      -999.2500        60.3600         0.1886         8.4980         5.8850         8.8190         6.0740         2.4370 
      5592.0000        12.4230        -0.0072         0.0610      -999.2500      -999.2500        58.1800         0.1921         8.6130         5.9990         8.7590         6.0570         2.4490 
      5592.5000        12.4130        -0.0086         0.0690      -999.2500      -999.2500        55.6300         0.1670         8.8660         6.0980         8.8530         6.1760         2.4560 
      5593.0000        12.4380        -0.0103         0.0710      -999.2500      -999.2500        52.6100         0.1234         9.2940         6.5000         9.0000         6.6850         2.4550 
      5593.5000        12.4640        -0.0117         0.0730      -999.2500      -999.2500        47.2600         0.0988         9.5040         7.6750         8.8920         7.8780         2.4610 
      5594.0000        12.4630        -0.0121         0.0800      -999.2500      -999.2500        42.9800         0.1024         9.4260         9.3980         8.6970         9.3480         2.4790 
      5594.5000        12.4870        -0.0097         0.0860      -999.2500      -999.2500        41.8800         0.1065         9.3420        10.2050         8.6730        10.0140         2.5030 
      5595.0000        12.4930        -0.0068         0.0900      -999.2500      -999.2500        44.8000         0.1033         9.2870         9.1470         8.8260         9.2460         2.5240 
      5595.5000        12.4620        -0.0082         0.0890      -999.2500      -999.2500        47.0700         0.1077         9.1830         8.5080         8.9120         8.8180         2.5330 
      5596.0000        12.4400        -0.0108         0.0860      -999.2500      -999.2500        46.9600         0.1286         9.0080         8.4050         8.8060         8.7330         2.5330 
      5596.5000        12.4220        -0.0118         0.0810      -999.2500      -999.2500        47.8800         0.1548         7.6100         8.2480         7.6960         8.4250         2.5240 
      5597.0000        12.4190        -0.0134      -999.2500      -999.2500      -999.2500        49.0100         0.1691         6.7300         5.8710         7.0510         6.1860      -999.2500 
      5597.5000        12.4250      -999.2500      -999.2500      -999.2500      -999.2500        49.3000      -999.2500         6.1300         4.6520         6.8040         4.8200      -999.2500 
      5598.0000      -999.2500      -999.2500      -999.2500      -999.2500      -999.2500        50.0800      -999.2500         5.6060         4.1560         6.4120         4.1660      -999.2500 
      5598.5000      -999.2500      -999.2500      -999.2500      -999.2500      -999.2500        49.7500      -999.2500         5.2190         4.0460         6.0760         3.9400      -999.2500 
      5599.0000      -999.2500      -999.2500      -999.2500      -999.2500      -999.2500        45.8500      -999.2500         4.9740         3.9900         5.8170         3.8720      -999.2500 
      5599.5000      -999.2500      -999.2500      -999.2500      -999.2500      -999.2500        38.7600      -999.2500         4.7500         3.8550         5.6710         3.8340      -999.2500 
      5600.0000      -999.2500      -999.2500      -999.2500      -999.2500      -999.2500        34.8600      -999.2500         4.6350         4.0230         5.6020         4.0600      -999.2500 
      5600.5000      -999.2500      -999.2500      -999.2500      -999.2500      -999.2500        35.6600      -999.2500         4.5420         4.8700         5.3340         4.8410      -999.2500 
      5601.0000      -999.2500      -999.2500      -999.2500      -999.2500      -999.2500        35.7000      -999.2500         4.6720         5.6800         5.3270         5.5660      -999.2500 
      5601.5000      -999.2500      -999.2500      -999.2500      -999.2500      -999.2500        36.6500      -999.2500         4.9400         5.8390         5.5420         5.6760      -999.2500 
      5602.0000      -999.2500      -999.2500      -999.2500      -999.2500      -999.2500        41.9200      -999.2500         5.3180         5.3630         5.9250         5.1770      -999.2500 
      5602.5000      -999.2500      -999.2500      -999.2500      -999.2500      -999.2500        52.1200      -999.2500         5.8540         4.9760         6.4040         4.7100      -999.2500 
      5603.0000      -999.2500      -999.2500      -999.2500      -999.2500      -999.2500        60.1500      -999.2500         6.3450         5.1640         6.7730         4.7660      -999.2500 
      5603.5000      -999.2500      -999.2500      -999.2500      -999.2500      -999.2500        62.2100      -999.2500         6.8090         5.7140         6.9580         5.2050      -999.2500 
      5604.0000      -999.2500      -999.2500      -999.2500      -999.2500      -999.2500        59.3700      -999.2500         7.1640         6.0480         7.1550         5.6620      -999.2500 
      5604.5000      -999.2500      -999.2500      -999.2500      -999.2500      -999.2500        57.1700      -999.2500         7.3320         6.4250         7.2120         6.1460      -999.2500 
      5605.0000      -999.2500      -999.2500      -999.2500      -999.2500      -999.2500        57.3800      -999.2500         7.4870         6.7570         7.2000         6.8260      -999.2500 
      5605.5000      -999.2500      -999.2500      -999.2500      -999.2500      -999.2500        56.2600      -999.2500         7.7510         6.4310         7.6960         6.5560      -999.2500 
      5606.0000      -999.2500      -999.2500      -999.2500      -999.2500      -999.2500        52.8300      -999.2500         7.8060         6.3860         7.8820         6.5440      -999.2500 
      5606.5000      -999.2500      -999.2500      -999.2500      -999.2500      -999.2500        51.3300      -999.2500         7.8830         6.5060         7.7220         6.7300      -999.2500 
      5607.0000      -999.2500      -999.2500      -999.2500      -999.2500      -999.2500        52.6600      -999.2500         8.0980         6.4300         7.6420         6.5630      -999.2500 
      5607.5000      -999.2500      -999.2500      -999.2500      -999.2500      -999.2500        52.6900      -999.2500         8.3400         6.2330         7.7090         6.1970      -999.2500 
      5608.0000      -999.2500      -999.2500      -999.2500      -999.2500      -999.2500        51.6400      -999.2500         8.5880         6.4270         7.7260         6.1080      -999.2500 
      5608.5000      -999.2500      -999.2500      -999.2500      -999.2500      -999.2500        52.0700      -999.2500         8.6830         6.6160         7.7460         6.1860      -999.2500 
      5609.0000      -999.2500      -999.2500      -999.2500      -999.2500      -999.2500        50.9500      -999.2500         8.8660         7.1160         7.8690         6.6760      -999.2500 
      5609.5000      -999.2500      -999.2500      -999.2500      -999.2500      -999.2500        45.2900      -999.2500         8.7910         9.6820         8.0340         9.6530      -999.2500 
      5610.0000      -999.2500      -999.2500      -999.2500      -999.2500      -999.2500        38.6300      -999.2500         7.6670        12.0220         7.4510        13.4060      -999.2500 
      5610.5000      -999.2500      -999.2500      -999.2500      -999.2500      -999.2500        34.1200      -999.2500         7.0150        10.9890         6.9250        12.5570      -999.2500 
      5611.0000      -999.2500      -999.2500      -999.2500      -999.2500      -999.2500        33.3400      -999.2500         6.6760         9.6690         6.5620        11.0440      -999.2500 
      5611.5000      -999.2500      -999.2500      -999.2500      -999.2500      -999.2500        37.9000      -999.2500         6.3250         8.2100         6.2270         9.2410      -999.2500 
