~Version Information Block
VERS .                 2.00:  CWLS LOG ASCII STANDARD - VERSION 2.00
WRAP .                   NO:  One line per depth step
~Well Information Block
#MNEM.UNIT        Data Type   Information
#---------- ----------------  -----------
STRT .F               548.5:  START DEPTH
STOP .F              5629.5:  STOP DEPTH
STEP .F                 0.5:  STEP
NULL .              -999.25:  NULL VALUE
COMP .          ADTI/LUNDIN:  COMPANY
WELL .             12/17b-1:  WELL
FLD  .            RIDGEWOOD:  FIELD
LOC  .            NORTH SEA:  LOCATION
PROV .                 UKCS:  PROVINCE
SRVC .           PATHFINDER:  SERVICE COMPANY
DATE .        DEC-07-JAN-08:  LOG DATE
UWI  .                29869:  UNIQUE WELL ID
~Curve Information Block
#MNEM.UNIT         API CODE   Curve Description
#---------- ----------------  -----------------
DEPTH.F                    :  Depth in Feet
CALI .IN                   :  Edited DNS Caliper from Standoffs
NPHI .V/V                  :  Edited DNS Neutron Porosity Correction
DRHO .G/C3                 :  Edited DNS Density - Density Correction
DTC  .US/F                 :  Edited Delta-T Compressional Lower trans
DTS  .US/F                 :  Edited Delta-T Shear Upper trans.
GR  .GAPI                 :  Edited CWR Calibrated Gamma
NLIM .V/V                  :  Edited Neutron Porosity (Lime)
R25A .OHMM                 :  Edited CWR Medium Attenuation Resistivity
R25P .OHMM                 :  Edited CWR Medium Phase Resistivity
R55A .OHMM                 :  Edited CWR Deep Attenuation Resistivity
R55P .OHMM                 :  Edited CWR Deep Phase Resistivity
RHOB .G/C3                 :  Edited DNS Density - Bulk Density
~Parameter Information Block
#MNEM.UNIT            Value   Description
#---------- ----------------  -----------
SET  .             COMP_MWD:  
PROJ .          113TH_I_1:  
DATU .                  MSL:  
DMF  .                   RT:  DRILLING-LOG MEASURED FROM
TDD  .F                5678:  
EKB  .F                 153:  
EPD  .F                   0:  ELEVATION OF PERMANENT DATUM
LATI .       58 23 51.523 N:  
LONG .       02 38 15.863 W:  
LMF  .                   RT:  
SURF .F                -203:  
~Other Information Block
       COMPOSITE
~A        DEPTH           CALI           DNPH           DRHO            DTC            DTS            GRC           NLIM           R25A           R25P           R55A           R55P           RHOB 
# ...
      2865.0000        12.8330        -0.0441         0.1300       106.1300      -999.2500        39.9900         0.2573         3.9350         3.4190         4.0410         3.4690         2.2820 
      2865.5000        12.9150        -0.0537         0.1200       107.0200      -999.2500        41.1900         0.2751         3.9700         3.4710         4.1070         3.5250         2.2820 
      2866.0000        12.8110        -0.0591         0.1010       107.0200      -999.2500        43.0700         0.3042         4.0100         3.4940         4.1750         3.5650         2.2810 
      2866.5000        12.6270        -0.0530         0.0830       106.1300      -999.2500        49.8200         0.3160         4.0510         3.5170         4.2430         3.6050         2.2780 
      2867.0000        12.6630        -0.0475         0.0750       105.6000      -999.2500        57.0100         0.2915         4.0680         3.5270         4.2700         3.6260         2.2780 
      2867.5000        12.7140        -0.0463         0.0770       106.6700      -999.2500        58.1300         0.2529         4.0860         3.5370         4.2970         3.6470         2.2830 
      2868.0000        12.7410        -0.0443         0.0830       107.9100      -999.2500        53.7300         0.2423         4.2070         3.6660         4.4690         3.8230         2.2870 
      2868.5000        12.7480        -0.0517         0.0890       107.2000      -999.2500        48.6600         0.2768         4.2600         3.6590         4.5320         3.8240         2.2810 
      2869.0000        12.9120        -0.0654         0.1000       106.1300      -999.2500        46.4400         0.3023         4.3660         3.6600         4.6130         3.8370         2.2730 
      2869.5000        12.9870        -0.0687         0.1170       105.6000      -999.2500        47.2900         0.2782         4.4880         3.7220         4.6870         3.8680         2.2730 
      2870.0000        13.0880        -0.0647         0.1340       105.6000      -999.2500        50.2300         0.2459         4.6930         3.8670         4.8160         3.9130         2.2880 
      2870.5000        13.0130        -0.0558         0.1390       106.1300      -999.2500        52.3800         0.2239         4.9520         4.0070         5.0420         3.9700         2.3060 
      2871.0000        12.8140        -0.0429         0.1360       107.0200      -999.2500        53.4700         0.2024         5.2400         4.1930         5.2870         4.1480         2.3330 
      2871.5000        12.7470        -0.0344         0.1280       106.1300      -999.2500        53.7300         0.1850         5.5970         4.6460         5.5940         4.6630         2.3670 
      2872.0000        12.6820        -0.0305         0.1170       104.3600      -999.2500        48.6400         0.1675         5.8530         5.6870         5.7430         5.7830         2.4080 
      2872.5000        12.7360        -0.0268         0.1030        99.2000      -999.2500        42.6000         0.1513         5.9960         6.5640         5.8070         6.7310         2.4530 
      2873.0000        12.5080        -0.0217         0.0890        90.8400      -999.2500        44.0100         0.1496         6.1750         7.2300         5.9140         7.4840         2.4850 
      2873.5000        12.4640        -0.0193         0.0750        87.4700      -999.2500        46.2400         0.1716         6.3310         6.7280         6.0780         6.9380         2.4860 
      2874.0000        12.4320        -0.0217         0.0640        90.6700      -999.2500        46.4100         0.2071         6.3410         6.5260         6.0930         6.7020         2.4460 
      2874.5000        12.5500        -0.0254         0.0620        97.7800      -999.2500        49.0100         0.2297         6.3510         6.3290         6.1070         6.4730         2.3940 
      2875.0000        12.5910        -0.0277         0.0730        99.9100      -999.2500        53.5500         0.2366         5.7300         4.3580         5.6140         4.2560         2.3600 
      2875.5000        12.6290        -0.0299         0.0850       103.4700      -999.2500        54.5200         0.2350         5.5410         4.3260         5.4700         4.3350         2.3490 
      2876.0000        12.6570        -0.0314         0.0890       105.6000      -999.2500        52.5000         0.2207         5.3570         4.2950         5.3300         4.4160         2.3500 
      2876.5000        12.6480        -0.0291         0.0820       104.0000      -999.2500        48.9500         0.2053         5.1840         4.5340         5.1650         4.7250         2.3560 
      2877.0000        12.4800        -0.0251         0.0720       101.3300      -999.2500        45.9500         0.2050         5.0170         4.7850         5.0060         5.0560         2.3730 
      2877.5000        12.4430        -0.0242         0.0680       100.8000      -999.2500        45.7800         0.2218         4.8420         4.3520         4.9970         4.5170         2.3920 
      2878.0000        12.4650        -0.0270         0.0670       100.8000      -999.2500        48.6800         0.2468         4.7180         4.1370         4.8930         4.2450         2.3950 
      2878.5000        12.5080        -0.0304         0.0650       101.3300      -999.2500        52.6700         0.2625         4.5980         3.9320         4.7910         3.9900         2.3720 
      2879.0000        12.5340        -0.0320         0.0570       104.0000      -999.2500        53.9200         0.2609         4.4280         3.8370         4.5670         3.8540         2.3310 
      2879.5000        12.5440        -0.0307         0.0520       105.6000      -999.2500        52.2500         0.2467         4.3470         3.7650         4.4760         3.8180         2.3030 
      2880.0000        12.5130        -0.0276         0.0530       106.1300      -999.2500        50.0500         0.2306         4.2670         3.6930         4.3870         3.7830         2.2960 
      2880.5000        12.4930        -0.0260         0.0590       107.0200      -999.2500        50.2700         0.2276         4.0850         3.5910         4.1820         3.6840         2.2930 
      2881.0000        12.4860        -0.0266         0.0600       107.2000      -999.2500        52.1800         0.2360         3.9210         3.3740         4.0460         3.4250         2.2760 
      2881.5000        12.4850        -0.0270         0.0570       107.7300      -999.2500        53.6300         0.2390         3.9200         3.2470         4.0660         3.3100         2.2510 
      2882.0000        12.5020        -0.0282         0.0560       107.5600      -999.2500        52.7200         0.2435         3.9190         3.1240         4.0870         3.1980         2.2450 
      2882.5000        12.5200        -0.0292         0.0580       105.9600      -999.2500        51.4600         0.2595         3.9170         3.4510         4.0180         3.5120         2.2600 
      2883.0000        12.4690        -0.0276         0.0580       106.1300      -999.2500        51.3300         0.2674         3.9680         3.5370         4.0520         3.6030         2.2820 
      2883.5000        12.4920        -0.0282         0.0570       107.0200      -999.2500        52.3200         0.2587         4.0170         3.5820         4.0950         3.6630         2.2950 
      2884.0000        12.6020        -0.0308         0.0550       107.0200      -999.2500        53.9900         0.2463         4.0940         3.6540         4.1870         3.7630         2.2990 
      2884.5000        12.5560        -0.0294         0.0610       106.1300      -999.2500        54.2200         0.2431         4.1400         3.7120         4.2500         3.8230         2.3020 
      2885.0000        12.5140        -0.0297         0.0710       105.7800      -999.2500        51.9300         0.2511         4.1780         3.7440         4.2840         3.8260         2.3060 
