~Version Information Block
VERS .                 2.00:  CWLS LOG ASCII STANDARD - VERSION 2.00
WRAP .                   NO:  One line per depth step
~Well Information Block
#MNEM.UNIT        Data Type   Information
#---------- ----------------  -----------
STRT .F               548.5:  START DEPTH
STOP .F              5629.5:  STOP DEPTH
STEP .F                 0.5:  STEP
NULL .              -999.25:  NULL VALUE
COMP .          ADTI/LUNDIN:  COMPANY
WELL .             12/17b-1:  WELL
FLD  .            RIDGEWOOD:  FIELD
LOC  .            NORTH SEA:  LOCATION
PROV .                 UKCS:  PROVINCE
SRVC .           PATHFINDER:  SERVICE COMPANY
DATE .        DEC-07-JAN-08:  LOG DATE
UWI  .                29869:  UNIQUE WELL ID
~Curve Information Block
#MNEM.UNIT         API CODE   Curve Description
#---------- ----------------  -----------------
DEPTH.F                    :  Depth in Feet
CALI .IN                   :  Edited DNS Caliper from Standoffs
NPHI .V/V                  :  Edited DNS Neutron Porosity Correction
DRHO .G/C3                 :  Edited DNS Density - Density Correction
DTC  .US/F                 :  Edited Delta-T Compressional Lower trans
DTS  .US/F                 :  Edited Delta-T Shear Upper trans.
GR  .GAPI                 :  Edited CWR Calibrated Gamma
NLIM .V/V                  :  Edited Neutron Porosity (Lime)
R25A .OHMM                 :  Edited CWR Medium Attenuation Resistivity
R25P .OHMM                 :  Edited CWR Medium Phase Resistivity
R55A .OHMM                 :  Edited CWR Deep Attenuation Resistivity
R55P .OHMM                 :  Edited CWR Deep Phase Resistivity
RHOB .G/C3                 :  Edited DNS Density - Bulk Density
~Parameter Information Block
#MNEM.UNIT            Value   Description
#---------- ----------------  -----------
SET  .             COMP_MWD:  
PROJ .          113TH_I_1:  
DATU .                  MSL:  
DMF  .                   RT:  DRILLING-LOG MEASURED FROM
TDD  .F                5678:  
EKB  .F                 153:  
EPD  .F                   0:  ELEVATION OF PERMANENT DATUM
LATI .       58 23 51.523 N:  
LONG .       02 38 15.863 W:  
LMF  .                   RT:  
SURF .F                -203:  
~Other Information Block
       COMPOSITE
~A        DEPTH           CALI           DNPH           DRHO            DTC            DTS            GRC           NLIM           R25A           R25P           R55A           R55P           RHOB 
# ...
      4751.0000        12.4480        -0.0126         0.0550        96.0000       166.4000        38.2900         0.2223         3.3030         2.9070         3.9140         3.1530         2.2570 
      4751.5000        12.4690        -0.0121         0.0440        96.0000       166.4000        50.1900         0.2370         3.6740         3.2770         4.1460         3.4240         2.2750 
      4752.0000        12.4530        -0.0121         0.0380        97.6000       166.4000        54.9600         0.2309         4.0420         3.7910         4.2980         3.8140         2.2950 
      4752.5000        12.4690        -0.0119         0.0380        96.0000       145.6000        49.7300         0.2070         4.4040         4.2380         4.4730         4.1730         2.3160 
      4753.0000        12.4410        -0.0115         0.0440        91.2000       148.8000        43.0700         0.1817         4.6630         4.3540         4.6550         4.2570         2.3450 
      4753.5000        12.4510        -0.0105         0.0450        89.6000       148.8000        41.0000         0.1660         4.9830         4.5100         4.8680         4.3920         2.3720 
      4754.0000        12.4410        -0.0091         0.0430        88.0000       140.8000        43.0000         0.1609         5.2340         4.9800         5.0510         4.7890         2.3980 
      4754.5000        12.4560        -0.0079         0.0400        83.2000       142.4000        48.4700         0.1627         5.6370         5.6360         5.4690         5.4050         2.4190 
      4755.0000        12.4470        -0.0062         0.0430        83.2000       142.4000        52.8200         0.1644         6.0630         6.0970         5.8860         5.8910         2.4360 
      4755.5000        12.4580        -0.0040         0.0510        84.8000       156.8000        54.3800         0.1547         6.3100         6.3340         6.2230         6.0440         2.4420 
      4756.0000        12.4320        -0.0025         0.0590        86.4000       158.4000        52.6800         0.1282         6.3660         6.1780         6.4060         5.7710         2.4440 
      4756.5000        12.4440        -0.0024         0.0650        86.4000       158.4000        44.6800         0.0929         6.3740         5.7860         6.5210         5.3040         2.4570 
      4757.0000        12.4620        -0.0032         0.0680        84.8000       155.2000        34.6500         0.0701         6.2540         6.1380         6.3070         5.4760         2.4900 
      4757.5000        12.4550        -0.0039         0.0660        73.6000       157.3300        29.6400         0.0785         6.2800         7.3720         6.0730         6.3240         2.5300 
      4758.0000        12.4380        -0.0046         0.0630        73.6000       157.3300        31.9100         0.1126         6.5200         8.2210         6.1250         7.0430         2.5480 
      4758.5000        12.4230        -0.0057         0.0590        73.6000       161.6000        39.6700         0.1440         7.0330         7.7720         6.5390         6.9110         2.5360 
      4759.0000        12.4150        -0.0060         0.0570        78.4000       156.8000        48.5600         0.1529         7.6960         7.1470         7.1080         6.5370         2.5110 
      4759.5000        12.4130        -0.0057         0.0570        81.6000       163.2000        52.9500         0.1454         8.1310         7.5850         7.3630         6.8620         2.4990 
      4760.0000        12.4220        -0.0060         0.0560        84.8000       148.8000        51.5900         0.1407         8.4210         8.3740         7.3560         7.4350         2.5070 
      4760.5000        12.4210        -0.0067         0.0510        86.4000       150.4000        49.5400         0.1484         8.3300         8.8300         7.1920         7.8760         2.5180 
      4761.0000        12.4100        -0.0069         0.0440        83.2000       155.2000        51.1500         0.1602         7.7290         8.5700         6.8070         7.9490         2.5160 
      4761.5000        12.4100        -0.0070         0.0390        83.2000       155.2000        53.4200         0.1710         7.1070         7.7330         6.4510         7.5120         2.4980 
      4762.0000        12.4140        -0.0078         0.0380        86.4000       147.2000        54.2300         0.1883         6.1520         6.6860         5.7940         6.8180         2.4680 
      4762.5000        12.4110        -0.0081         0.0390        86.4000       152.0000        50.8000         0.2033         5.1240         5.5330         5.0150         5.7560         2.4200 
      4763.0000        12.4190        -0.0078         0.0420        84.8000       164.8000        42.9500         0.2077         4.3940         4.2110         4.4850         4.3800         2.3580 
      4763.5000        12.4260        -0.0091         0.0450        88.0000       166.4000        36.0200         0.2139         3.7800         3.1810         4.0210         3.2740         2.2950 
      4764.0000        12.4300        -0.0118         0.0480        88.0000       158.4000        31.3300         0.2187         3.2370         2.7090         3.4990         2.7730         2.2450 
      4764.5000        12.4290        -0.0134         0.0520        91.2000       168.0000        29.9700         0.2185         2.9720         2.5440         3.2230         2.6180         2.2160 
      4765.0000        12.4320        -0.0138         0.0510        91.2000       168.0000        30.5500         0.2268         2.7810         2.4210         3.0410         2.5220         2.2000 
      4765.5000        12.4300        -0.0140         0.0500        91.2000       166.4000        30.3800         0.2397         2.6530         2.3500         2.9460         2.4870         2.1930 
      4766.0000        12.4330        -0.0145         0.0470        89.6000       161.6000        30.2200         0.2416         2.5810         2.3570         2.8880         2.5350         2.1870 
      4766.5000        12.4340        -0.0144         0.0450        94.4000       166.4000        30.7200         0.2381         2.5670         2.4270         2.8400         2.6370         2.1810 
      4767.0000        12.4400        -0.0144         0.0440        94.4000       166.4000        31.7900         0.2424         2.5410         2.4500         2.7780         2.6440         2.1720 
      4767.5000        12.4460        -0.0151         0.0440        96.0000       164.8000        32.6200         0.2465         2.4930         2.3080         2.7300         2.4270         2.1630 
      4768.0000        12.4460        -0.0153         0.0460        97.6000       163.2000        32.0300         0.2420         2.4300         2.1460         2.6560         2.2040         2.1570 
      4768.5000        12.4700        -0.0150         0.0460        99.2000       150.4000        31.8400         0.2369         2.3710         2.1300         2.5570         2.1830         2.1560 
      4769.0000        12.4810        -0.0138         0.0460        99.2000       166.4000        32.8900         0.2372         2.3430         2.1610         2.5080         2.2400         2.1600 
      4769.5000        12.4970        -0.0124         0.0460        97.6000       168.0000        33.0000         0.2400         2.3260         2.1490         2.5010         2.2640         2.1650 
      4770.0000        12.4830        -0.0122         0.0460        99.2000       166.4000        32.3800         0.2375         2.3220         2.1370         2.5060         2.2690         2.1680 
      4770.5000        12.4660        -0.0128         0.0440        99.2000       166.4000        31.7100         0.2295         2.3410         2.1440         2.5140         2.2620         2.1650 
      4771.0000        12.4640        -0.0137         0.0410        96.0000       166.4000        31.3800         0.2245         2.3870         2.1440         2.5460         2.2300         2.1590 
