~Version Information Block
VERS .                 2.00:  CWLS LOG ASCII STANDARD - VERSION 2.00
WRAP .                   NO:  One line per depth step
~Well Information Block
#MNEM.UNIT        Data Type   Information
#---------- ----------------  -----------
STRT .F               548.5:  START DEPTH
STOP .F              5629.5:  STOP DEPTH
STEP .F                 0.5:  STEP
NULL .              -999.25:  NULL VALUE
COMP .          ADTI/LUNDIN:  COMPANY
WELL .             12/17b-1:  WELL
FLD  .            RIDGEWOOD:  FIELD
LOC  .            NORTH SEA:  LOCATION
PROV .                 UKCS:  PROVINCE
SRVC .           PATHFINDER:  SERVICE COMPANY
DATE .        DEC-07-JAN-08:  LOG DATE
UWI  .                29869:  UNIQUE WELL ID
~Curve Information Block
#MNEM.UNIT         API CODE   Curve Description
#---------- ----------------  -----------------
DEPTH.F                    :  Depth in Feet
CALI .IN                   :  Edited DNS Caliper from Standoffs
NPHI .V/V                  :  Edited DNS Neutron Porosity Correction
DRHO .G/C3                 :  Edited DNS Density - Density Correction
DTC  .US/F                 :  Edited Delta-T Compressional Lower trans
DTS  .US/F                 :  Edited Delta-T Shear Upper trans.
GR  .GAPI                 :  Edited CWR Calibrated Gamma
NLIM .V/V                  :  Edited Neutron Porosity (Lime)
R25A .OHMM                 :  Edited CWR Medium Attenuation Resistivity
R25P .OHMM                 :  Edited CWR Medium Phase Resistivity
R55A .OHMM                 :  Edited CWR Deep Attenuation Resistivity
R55P .OHMM                 :  Edited CWR Deep Phase Resistivity
RHOB .G/C3                 :  Edited DNS Density - Bulk Density
~Parameter Information Block
#MNEM.UNIT            Value   Description
#---------- ----------------  -----------
SET  .             COMP_MWD:  
PROJ .          113TH_I_1:  
DATU .                  MSL:  
DMF  .                   RT:  DRILLING-LOG MEASURED FROM
TDD  .F                5678:  
EKB  .F                 153:  
EPD  .F                   0:  ELEVATION OF PERMANENT DATUM
LATI .       58 23 51.523 N:  
LONG .       02 38 15.863 W:  
LMF  .                   RT:  
SURF .F                -203:  
~Other Information Block
       COMPOSITE
~A        DEPTH           CALI           DNPH           DRHO            DTC            DTS            GRC           NLIM           R25A           R25P           R55A           R55P           RHOB 
# ...
      4136.0000        12.5360        -0.0182         0.0830        97.0700      -999.2500        60.6400         0.2055         7.7100         6.8300         7.8880         7.2090         2.3970 
      4136.5000        12.5050        -0.0186         0.0770        96.1800      -999.2500        59.7800         0.2025         8.0990         6.9900         8.2480         7.3170         2.4040 
      4137.0000        12.4800        -0.0180         0.0620        94.9300      -999.2500        60.6100         0.1994         8.3130         7.0160         8.4380         7.2160         2.4060 
      4137.5000        12.4780        -0.0169         0.0420        92.9800      -999.2500        63.5300         0.1973         8.4640         7.0890         8.4920         7.2820         2.3900 
      4138.0000        12.4730        -0.0168         0.0310        93.6900      -999.2500        64.5100         0.1996         8.3940         7.1160         8.3280         7.3830         2.3580 
      4138.5000        12.4630        -0.0175         0.0300        95.8200      -999.2500        60.6900         0.2023         8.1020         6.9930         8.0950         7.2750         2.3200 
      4139.0000        12.4710        -0.0189         0.0360        96.8900      -999.2500        52.9500         0.2010         7.9530         6.7620         8.0390         7.0330         2.2930 
      4139.5000        12.4950        -0.0201         0.0430        96.7100      -999.2500        46.8700         0.1983         7.6350         5.9320         8.0220         6.1550         2.2880 
      4140.0000        12.5080        -0.0206         0.0480        94.9300      -999.2500        41.8600         0.1961         7.5290         5.7670         8.0350         5.9490         2.3030 
      4140.5000        12.5630        -0.0191         0.0530        93.1600      -999.2500        41.2800         0.1972         7.7020         6.2780         8.1370         6.5030         2.3270 
      4141.0000        12.5120        -0.0163         0.0550        92.6200      -999.2500        45.4600         0.1993         7.8660         6.6400         8.2970         6.9340         2.3450 
      4141.5000        12.4970        -0.0159         0.0550        92.0900      -999.2500        46.9900         0.1990         8.1940         7.0140         8.5880         7.3850         2.3610 
      4142.0000        12.4960        -0.0179         0.0540        91.5600      -999.2500        46.4900         0.1967         8.5130         7.2740         8.8640         7.6780         2.3720 
      4142.5000        12.4910        -0.0191         0.0560        91.7300      -999.2500        47.1400         0.1941         9.0540         7.5550         9.2230         7.8870         2.3840 
      4143.0000        12.4900        -0.0183         0.0580        91.2000      -999.2500        48.8700         0.1928         9.4720         7.7010         9.4870         7.9420         2.3930 
      4143.5000        12.4780        -0.0172         0.0610        92.2700      -999.2500        51.0500         0.1911         9.6940         7.7880         9.6080         7.9920         2.4000 
      4144.0000        12.4780        -0.0169         0.0650        94.0400      -999.2500        54.1600         0.1902         9.8310         7.8550         9.6830         8.0710         2.4070 
      4144.5000        12.4810        -0.0164         0.0710        92.4400      -999.2500        56.4900         0.1900         9.9130         7.8330         9.7390         8.1240         2.4110 
      4145.0000        12.4840        -0.0157         0.0770        93.5100      -999.2500        55.7000         0.1885         9.9370         7.7950         9.8230         8.1330         2.4110 
      4145.5000        12.4890        -0.0147         0.0840        95.2900      -999.2500        54.0300         0.1875         9.9860         7.7790         9.9060         8.0890         2.4110 
      4146.0000        12.4840        -0.0138         0.0870        94.5800      -999.2500        53.0700         0.1913        10.0090         7.8050         9.9210         8.0580         2.4090 
      4146.5000        12.4960        -0.0137         0.0860        94.4000      -999.2500        53.3900         0.1919        10.0620         7.8150         9.9920         7.9790         2.4010 
      4147.0000        12.5020        -0.0137         0.0790        95.4700      -999.2500        53.0600         0.1753        10.1370         7.7200        10.1530         7.8100         2.3880 
      4147.5000        12.4890        -0.0120         0.0750        90.6700      -999.2500        50.9000         0.1533        10.2050         7.6360        10.2730         7.7330         2.3850 
      4148.0000        12.4900        -0.0084         0.0760        84.8000      -999.2500        46.4800         0.1477        10.3470         8.1920        10.4850         8.3010         2.3940 
      4148.5000        12.5320        -0.0053         0.0800        82.8400      -999.2500        42.3100         0.1559        10.4680        10.0120        10.5290        10.0200         2.4040 
      4149.0000        12.5850        -0.0046         0.0830        78.4000      -999.2500        43.2300         0.1630        10.8530        10.1710        11.0580        10.4370         2.4050 
      4149.5000        12.5620        -0.0078         0.0830        73.9600      -999.2500        46.0200         0.1605        11.2700         9.4450        11.5670         9.9770         2.4000 
      4150.0000        12.6480        -0.0137         0.0780        78.7600      -999.2500        45.9400         0.1540        11.5630         9.2300        11.9260         9.7140         2.4010 
      4150.5000        12.6200        -0.0170         0.0710        84.0900      -999.2500        44.9300         0.1577        11.7950         9.4540        12.0530         9.7760         2.4060 
      4151.0000        12.5200        -0.0149         0.0670        86.7600      -999.2500        46.7500         0.1678        11.9540         9.5150        12.1260         9.8300         2.4070 
      4151.5000        12.4910        -0.0110         0.0660        88.5300      -999.2500        48.9100         0.1733        12.4200         9.3320        12.3950         9.6960         2.3990 
      4152.0000        12.5140        -0.0081         0.0610        89.9600      -999.2500        50.4000         0.1698        13.2100         9.3100        13.0490         9.4900         2.3850 
      4152.5000        12.5440        -0.0059         0.0550        89.9600      -999.2500        49.8200         0.1435        14.3380        10.2540        13.6770        10.1750         2.3780 
      4153.0000        12.5530        -0.0058         0.0500        89.0700      -999.2500        46.4800         0.0960        15.1100        10.9710        14.1420        10.9040         2.3890 
      4153.5000        12.6070        -0.0076         0.0520        84.4400      -999.2500        43.3200         0.0561        16.0420        13.6850        14.3370        13.2980         2.4300 
      4154.0000        12.5030        -0.0092         0.0520        78.4000      -999.2500        39.3100         0.0457        16.5860        18.4660        14.4790        16.8470         2.4840 
      4154.5000        12.5050        -0.0101         0.0500        68.4400      -999.2500        34.2900         0.0593        17.3140        20.6540        14.8400        18.2670         2.5340 
      4155.0000        12.5720        -0.0107         0.0460        63.6400      -999.2500        33.1900         0.0818        18.2970        19.7940        15.2560        17.8480         2.5600 
      4155.5000        12.5330        -0.0114         0.0480        65.9600      -999.2500        33.9200         0.1085        18.4570        18.3570        15.2580        16.7160         2.5630 
      4156.0000        12.5030        -0.0125         0.0560        65.6000      -999.2500        34.2100         0.1357        18.0390        17.1680        14.9160        15.6150         2.5500 
