~Version Information Block
VERS .                 2.00:  CWLS LOG ASCII STANDARD - VERSION 2.00
WRAP .                   NO:  One line per depth step
~Well Information Block
#MNEM.UNIT        Data Type   Information
#---------- ----------------  -----------
STRT .F               548.5:  START DEPTH
STOP .F              5629.5:  STOP DEPTH
STEP .F                 0.5:  STEP
NULL .              -999.25:  NULL VALUE
COMP .          ADTI/LUNDIN:  COMPANY
WELL .             12/17b-1:  WELL
FLD  .            RIDGEWOOD:  FIELD
LOC  .            NORTH SEA:  LOCATION
PROV .                 UKCS:  PROVINCE
SRVC .           PATHFINDER:  SERVICE COMPANY
DATE .        DEC-07-JAN-08:  LOG DATE
UWI  .                29869:  UNIQUE WELL ID
~Curve Information Block
#MNEM.UNIT         API CODE   Curve Description
#---------- ----------------  -----------------
DEPTH.F                    :  Depth in Feet
CALI .IN                   :  Edited DNS Caliper from Standoffs
NPHI .V/V                  :  Edited DNS Neutron Porosity Correction
DRHO .G/C3                 :  Edited DNS Density - Density Correction
DTC  .US/F                 :  Edited Delta-T Compressional Lower trans
DTS  .US/F                 :  Edited Delta-T Shear Upper trans.
GR  .GAPI                 :  Edited CWR Calibrated Gamma
NLIM .V/V                  :  Edited Neutron Porosity (Lime)
R25A .OHMM                 :  Edited CWR Medium Attenuation Resistivity
R25P .OHMM                 :  Edited CWR Medium Phase Resistivity
R55A .OHMM                 :  Edited CWR Deep Attenuation Resistivity
R55P .OHMM                 :  Edited CWR Deep Phase Resistivity
RHOB .G/C3                 :  Edited DNS Density - Bulk Density
~Parameter Information Block
#MNEM.UNIT            Value   Description
#---------- ----------------  -----------
SET  .             COMP_MWD:  
PROJ .          113TH_I_1:  
DATU .                  MSL:  
DMF  .                   RT:  DRILLING-LOG MEASURED FROM
TDD  .F                5678:  
EKB  .F                 153:  
EPD  .F                   0:  ELEVATION OF PERMANENT DATUM
LATI .       58 23 51.523 N:  
LONG .       02 38 15.863 W:  
LMF  .                   RT:  
SURF .F                -203:  
~Other Information Block
       COMPOSITE
~A        DEPTH           CALI           DNPH           DRHO            DTC            DTS            GRC           NLIM           R25A           R25P           R55A           R55P           RHOB 
# ...
      3705.5000        12.4720        -0.0212         0.0230       100.2700      -999.2500        54.4500         0.2344         8.5930         6.9690         8.6640         7.1140         2.3590 
      3706.0000        12.4730        -0.0200         0.0260       101.5100      -999.2500        56.7000         0.2328         8.5990         6.9580         8.6450         7.0930         2.3500 
      3706.5000        12.4670        -0.0182         0.0300        99.5600      -999.2500        58.1700         0.2350         8.5730         6.8460         8.6210         6.9560         2.3330 
      3707.0000        12.4670        -0.0175         0.0290       100.4400      -999.2500        56.4100         0.2398         8.6070         6.5040         8.6690         6.5860         2.3110 
      3707.5000        12.4700        -0.0177         0.0250       103.8200      -999.2500        53.7300         0.2397         8.5970         6.3420         8.7290         6.4480         2.2900 
      3708.0000        12.4670        -0.0180         0.0240       104.8900      -999.2500        54.6200         0.2400         8.5920         6.5170         8.7120         6.5980         2.2810 
      3708.5000        12.4720        -0.0186         0.0330       104.7100      -999.2500        53.7100         0.2380         8.6410         6.7620         8.7120         6.8310         2.2910 
      3709.0000        12.4890        -0.0200         0.0470       105.4200      -999.2500        50.8800         0.2325         8.7380         6.9090         8.7850         7.0110         2.3150 
      3709.5000        12.4740        -0.0205         0.0540       104.5300      -999.2500        49.8600         0.2288         8.8730         6.9830         8.8970         7.1240         2.3370 
      3710.0000        12.4720        -0.0184         0.0490       102.4000      -999.2500        50.3400         0.2296         8.9610         7.1490         9.0090         7.2940         2.3460 
      3710.5000        12.4740        -0.0158         0.0370       100.2700      -999.2500        51.8300         0.2318         9.0240         7.3610         9.0060         7.4710         2.3450 
      3711.0000        12.4840        -0.0149         0.0270        99.3800      -999.2500        52.4100         0.2316         9.1010         7.4420         9.0490         7.5060         2.3430 
      3711.5000        12.4740        -0.0160         0.0240       100.2700      -999.2500        53.5800         0.2290         9.2350         7.2810         9.1290         7.3490         2.3450 
      3712.0000        12.4750        -0.0170         0.0280       100.6200      -999.2500        56.0900         0.2327         9.2230         7.1850         9.1290         7.2380         2.3510 
      3712.5000        12.4690        -0.0160         0.0360       100.2700      -999.2500        55.4800         0.2382         9.1830         7.1430         9.0900         7.1850         2.3530 
      3713.0000        12.4720        -0.0151         0.0440       100.6200      -999.2500        51.3900         0.2361         9.1310         7.1210         9.0520         7.1430         2.3490 
      3713.5000        12.4750        -0.0147         0.0530       100.8000      -999.2500        49.6800         0.2331         9.0950         7.0470         9.0330         7.1050         2.3470 
      3714.0000        12.4810        -0.0138         0.0660       100.2700      -999.2500        51.2500         0.2272         9.0270         6.9980         9.0270         7.0770         2.3540 
      3714.5000        12.4960        -0.0144         0.0750        99.9100      -999.2500        52.9000         0.2222         8.9710         6.9770         8.9990         7.0680         2.3630 
      3715.0000        12.5800        -0.0158         0.0740       100.0900      -999.2500        52.9100         0.2252         8.8990         6.9640         8.9660         7.0610         2.3640 
      3715.5000        12.5130        -0.0154         0.0620        99.5600      -999.2500        52.5100         0.2290         8.7890         6.9380         8.9530         7.0690         2.3550 
      3716.0000        12.4990        -0.0136         0.0530       100.2700      -999.2500        53.8800         0.2285         8.8000         6.9340         8.9430         7.0470         2.3470 
      3716.5000        12.4910        -0.0129         0.0490       100.8000      -999.2500        53.5200         0.2286         8.7810         6.9180         8.9240         7.0420         2.3430 
      3717.0000        12.5080        -0.0153         0.0510       100.8000      -999.2500        51.3700         0.2290         8.7500         6.8860         8.9090         7.0020         2.3440 
      3717.5000        12.5220        -0.0186         0.0500       100.8000      -999.2500        51.4400         0.2265         8.7200         6.8510         8.8720         6.9540         2.3400 
      3718.0000        12.5150        -0.0194         0.0460       101.5100      -999.2500        53.7800         0.2263         8.6740         6.8270         8.8310         6.8990         2.3330 
      3718.5000        12.4790        -0.0176         0.0430       103.1100      -999.2500        56.8900         0.2338         8.6650         6.7460         8.8420         6.8100         2.3270 
      3719.0000        12.4640        -0.0157         0.0420       102.9300      -999.2500        58.4100         0.2456         8.7530         6.6970         8.8880         6.7800         2.3270 
      3719.5000        12.4730        -0.0145         0.0430       102.2200      -999.2500        59.0200         0.2494         8.8130         6.7900         8.9030         6.8590         2.3300 
      3720.0000        12.4820        -0.0130         0.0430       101.3300      -999.2500        58.3500         0.2387         8.9300         6.9920         8.9880         7.0380         2.3320 
      3720.5000        12.4760        -0.0120         0.0420       100.0900      -999.2500        55.4600         0.2259         8.9840         7.0630         9.0470         7.1190         2.3290 
      3721.0000        12.4890        -0.0129         0.0420        97.4200      -999.2500        50.1000         0.2272         9.0360         7.2580         9.0840         7.3250         2.3270 
      3721.5000        12.5510        -0.0176         0.0430        96.0000      -999.2500        48.9800         0.2439         9.0460         7.2860         9.0910         7.3770         2.3220 
      3722.0000        12.6880        -0.0215         0.0460        95.6400      -999.2500        50.0000         0.2551         9.0670         7.3650         9.0990         7.4660         2.3140 
      3722.5000        12.5750        -0.0193         0.0510        95.1100      -999.2500        50.8500         0.2509         9.1280         7.4090         9.0950         7.5150         2.3030 
      3723.0000        12.6220        -0.0191         0.0600        95.4700      -999.2500        50.4500         0.2473         9.0860         7.3820         9.0680         7.4650         2.3030 
      3723.5000        12.7100        -0.0224         0.0700        97.7800      -999.2500        48.8900         0.2432         9.1200         7.3090         9.0370         7.3840         2.3120 
      3724.0000        12.7010        -0.0237         0.0770        98.4900      -999.2500        48.3300         0.2264         9.1600         7.2240         9.0410         7.2900         2.3260 
      3724.5000        12.6970        -0.0230         0.0770        96.7100      -999.2500        49.5900         0.2063         9.1730         7.1980         9.0260         7.2590         2.3370 
      3725.0000        12.6680        -0.0214         0.0710        94.7600      -999.2500        51.3800         0.2011         9.1530         7.2350         8.9750         7.2790         2.3450 
      3725.5000        12.6420        -0.0204         0.0640        94.4000      -999.2500        53.2200         0.2057         9.0900         7.2950         8.9050         7.3220         2.3540 
