~Version Information Block
VERS .                 2.00:  CWLS LOG ASCII STANDARD - VERSION 2.00
WRAP .                   NO:  One line per depth step
~Well Information Block
#MNEM.UNIT        Data Type   Information
#---------- ----------------  -----------
STRT .F               548.5:  START DEPTH
STOP .F              5629.5:  STOP DEPTH
STEP .F                 0.5:  STEP
NULL .              -999.25:  NULL VALUE
COMP .          ADTI/LUNDIN:  COMPANY
WELL .             12/17b-1:  WELL
FLD  .            RIDGEWOOD:  FIELD
LOC  .            NORTH SEA:  LOCATION
PROV .                 UKCS:  PROVINCE
SRVC .           PATHFINDER:  SERVICE COMPANY
DATE .        DEC-07-JAN-08:  LOG DATE
UWI  .                29869:  UNIQUE WELL ID
~Curve Information Block
#MNEM.UNIT         API CODE   Curve Description
#---------- ----------------  -----------------
DEPTH.F                    :  Depth in Feet
CALI .IN                   :  Edited DNS Caliper from Standoffs
NPHI .V/V                  :  Edited DNS Neutron Porosity Correction
DRHO .G/C3                 :  Edited DNS Density - Density Correction
DTC  .US/F                 :  Edited Delta-T Compressional Lower trans
DTS  .US/F                 :  Edited Delta-T Shear Upper trans.
GR  .GAPI                 :  Edited CWR Calibrated Gamma
NLIM .V/V                  :  Edited Neutron Porosity (Lime)
R25A .OHMM                 :  Edited CWR Medium Attenuation Resistivity
R25P .OHMM                 :  Edited CWR Medium Phase Resistivity
R55A .OHMM                 :  Edited CWR Deep Attenuation Resistivity
R55P .OHMM                 :  Edited CWR Deep Phase Resistivity
RHOB .G/C3                 :  Edited DNS Density - Bulk Density
~Parameter Information Block
#MNEM.UNIT            Value   Description
#---------- ----------------  -----------
SET  .             COMP_MWD:  
PROJ .          113TH_I_1:  
DATU .                  MSL:  
DMF  .                   RT:  DRILLING-LOG MEASURED FROM
TDD  .F                5678:  
EKB  .F                 153:  
EPD  .F                   0:  ELEVATION OF PERMANENT DATUM
LATI .       58 23 51.523 N:  
LONG .       02 38 15.863 W:  
LMF  .                   RT:  
SURF .F                -203:  
~Other Information Block
       COMPOSITE
~A        DEPTH           CALI           DNPH           DRHO            DTC            DTS            GRC           NLIM           R25A           R25P           R55A           R55P           RHOB 
# ...
      3910.5000        12.4640        -0.0161         0.0560       100.8000      -999.2500        57.1800         0.2128         8.3580         7.2070         8.6880         7.3310         2.3030 
      3911.0000        12.4720        -0.0161         0.0520       100.4400      -999.2500        61.6500         0.2233         8.1910         7.1180         8.5400         7.2670         2.3100 
      3911.5000        12.4730        -0.0161         0.0430        98.4900      -999.2500        57.1600         0.2242         7.9050         6.7700         8.3360         7.0090         2.2980 
      3912.0000        12.4760        -0.0152         0.0360        96.5300      -999.2500        47.1200         0.2183         7.6970         6.5520         8.1250         6.8110         2.2730 
      3912.5000        12.4780        -0.0145         0.0360        96.5300      -999.2500        40.0000         0.2114         7.3820         6.4200         7.7670         6.6630         2.2520 
      3913.0000        12.4830        -0.0149         0.0400        99.0200      -999.2500        36.3900         0.2092         7.1040         6.2910         7.4250         6.4460         2.2350 
      3913.5000        12.4850        -0.0146         0.0460       100.2700      -999.2500        33.8000         0.2144         6.9410         6.0580         7.2580         6.1530         2.2290 
      3914.0000        12.5170        -0.0139         0.0470        96.5300      -999.2500        31.5400         0.2140         6.8030         5.8090         7.1680         5.8890         2.2270 
      3914.5000        12.5210        -0.0144         0.0460        86.7600      -999.2500        31.1600         0.1953         6.7280         5.6520         7.1790         5.8000         2.2350 
      3915.0000        12.6060        -0.0154         0.0420        80.0000      -999.2500        31.8900         0.1694         6.7660         5.7880         7.2920         6.0120         2.2530 
      3915.5000        12.5600        -0.0150         0.0360        81.7800      -999.2500        32.8400         0.1565         6.7850         6.3770         7.2630         6.6770         2.2770 
      3916.0000        12.4790        -0.0131         0.0320        89.6000      -999.2500        32.5100         0.1597         6.7710         7.1680         7.1660         7.5670         2.3000 
      3916.5000        12.4760        -0.0115         0.0300        96.1800      -999.2500        30.7700         0.1720         6.8370         7.0930         7.2010         7.5450         2.3070 
      3917.0000        12.5120        -0.0118         0.0340        98.6700      -999.2500        29.8500         0.1876         6.9090         6.6760         7.2570         7.0440         2.2920 
      3917.5000        12.5100        -0.0140         0.0340        98.6700      -999.2500        29.4900         0.1957         6.9440         6.3520         7.3120         6.5930         2.2580 
      3918.0000        12.5230        -0.0166         0.0390        95.8200      -999.2500        30.4800         0.1884         7.0920         6.0670         7.4260         6.2460         2.2300 
      3918.5000        12.5640        -0.0183         0.0430        93.1600      -999.2500        30.5800         0.1768         7.2820         5.9480         7.5360         6.1600         2.2210 
      3919.0000        12.5790        -0.0179         0.0490        91.7300      -999.2500        29.6100         0.1767         7.4980         6.3570         7.5760         6.6220         2.2370 
      3919.5000        12.5010        -0.0160         0.0530        88.5300      -999.2500        30.7100         0.1827         7.7090         7.1500         7.6510         7.3880         2.2620 
      3920.0000        12.4730        -0.0147         0.0540        84.0900      -999.2500        33.0100         0.1832         8.0190         7.6050         7.8840         7.8510         2.2850 
      3920.5000        12.4670        -0.0130         0.0570        83.5600      -999.2500        36.7700         0.1805         8.2190         7.9090         8.0700         8.1810         2.3030 
      3921.0000        12.4640        -0.0102         0.0570        85.3300      -999.2500        41.5100         0.1768         8.3110         8.2100         8.1700         8.4700         2.3160 
      3921.5000        12.4800        -0.0082         0.0560        88.0000      -999.2500        43.8000         0.1702         8.4170         8.2270         8.1490         8.4660         2.3280 
      3922.0000        12.4950        -0.0087         0.0500        89.0700      -999.2500        42.8300         0.1670         8.2760         8.2540         7.8910         8.4090         2.3280 
      3922.5000        12.5180        -0.0109         0.0470        89.9600      -999.2500        37.9700         0.1755         8.0140         7.9210         7.6410         7.9670         2.3180 
      3923.0000        12.4800        -0.0127         0.0460        95.2900      -999.2500        33.4000         0.1840         7.6600         7.1040         7.4170         7.0960         2.3000 
      3923.5000        12.4770        -0.0139         0.0440        95.2900      -999.2500        34.8300         0.1851         7.3570         6.4540         7.2540         6.4710         2.2830 
      3924.0000        12.4850        -0.0157         0.0380        93.6900      -999.2500        39.9400         0.1913         6.9280         6.0410         6.9620         6.1580         2.2670 
      3924.5000        12.4700        -0.0170         0.0320        94.0400      -999.2500        42.9100         0.1992         6.5710         5.8760         6.6800         6.1410         2.2510 
      3925.0000        12.4690        -0.0176         0.0340        94.4000      -999.2500        40.2100         0.2039         6.3030         5.7920         6.4720         6.1240         2.2370 
      3925.5000        12.4640        -0.0179         0.0400        95.6400      -999.2500        34.6500         0.2097         5.8200         5.3910         6.1200         5.7010         2.2220 
      3926.0000        12.4740        -0.0174         0.0450        95.2900      -999.2500        30.2500         0.2130         5.5540         4.9990         5.9160         5.2120         2.2120 
      3926.5000        12.4970        -0.0159         0.0450        95.1100      -999.2500        27.2700         0.2117         5.3580         4.7810         5.7320         4.9340         2.2030 
      3927.0000        12.4860        -0.0140         0.0460        95.6400      -999.2500        27.7100         0.2111         5.2380         4.6880         5.6100         4.8120         2.2010 
      3927.5000        12.4890        -0.0124         0.0450        95.1100      -999.2500        29.5900         0.2163         5.1580         4.6810         5.5070         4.8110         2.1990 
      3928.0000        12.4960        -0.0128         0.0430        93.8700      -999.2500        29.3300         0.2246         5.0870         4.6730         5.4260         4.8220         2.1960 
      3928.5000        12.4970        -0.0157         0.0390        94.9300      -999.2500        28.4100         0.2259         5.0620         4.6370         5.4260         4.8060         2.1910 
      3929.0000        12.5030        -0.0185         0.0380        95.8200      -999.2500        28.8600         0.2157         5.0740         4.6470         5.4370         4.8140         2.1930 
      3929.5000        12.5210        -0.0199         0.0390        94.7600      -999.2500        29.7100         0.2049         5.0840         4.6920         5.4560         4.8280         2.1960 
      3930.0000        12.5210        -0.0194         0.0420        94.5800      -999.2500        30.2500         0.2039         5.1250         4.7650         5.4970         4.8700         2.1990 
      3930.5000        12.4960        -0.0167         0.0420        96.1800      -999.2500        30.9300         0.2062         5.1580         4.8450         5.5380         4.9480         2.1970 
